City:
  san_paolo_d_argon:
    province_id: BG
    code:        B310
    name:        'San Paolo D''Argon'
    latitude:    45.689389
    longitude:   9.803463
  cabella_ligure:
    province_id: AL
    code:        B311
    name:        'Cabella Ligure'
    latitude:    44.67487
    longitude:   9.096889
  castello_cabiaglio:
    province_id: VA
    code:        B312
    name:        'Castello Cabiaglio'
    latitude:    45.894225
    longitude:   8.756973
  cabiate:
    province_id: CO
    code:        B313
    name:        Cabiate
    latitude:    45.675167
    longitude:   9.174852
  cabras:
    province_id: OR
    code:        B314
    name:        Cabras
    latitude:    39.932204
    longitude:   8.533907
  caccamo:
    province_id: PA
    code:        B315
    name:        Caccamo
    latitude:    37.933759
    longitude:   13.665963
  poggio_sannita:
    province_id: IS
    code:        B317
    name:        'Poggio Sannita'
    latitude:    41.777913
    longitude:   14.412857
  caccuri:
    province_id: KR
    code:        B319
    name:        Caccuri
    latitude:    39.227293
    longitude:   16.777867
  ca_d_andrea:
    province_id: CR
    code:        B320
    name:        'Ca'' D''Andrea'
    latitude:    45.119658
    longitude:   10.277314
  cadegliano_viconago:
    province_id: VA
    code:        B326
    name:        Cadegliano-Viconago
    latitude:    45.960551
    longitude:   8.845212
  cadelbosco_di_sopra:
    province_id: RE
    code:        B328
    name:        'Cadelbosco di Sopra'
    latitude:    44.759132
    longitude:   10.671362
  cadeo:
    province_id: PC
    code:        B332
    name:        Cadeo
    latitude:    44.974592
    longitude:   9.831093
  caderzone:
    province_id: TN
    code:        B335
    name:        Caderzone
    latitude:    46.131278
    longitude:   10.758611
  cadoneghe:
    province_id: PD
    code:        B345
    name:        Cadoneghe
    latitude:    45.448154
    longitude:   11.909238
  cadorago:
    province_id: CO
    code:        B346
    name:        Cadorago
    latitude:    45.726271
    longitude:   9.038025
  cadrezzate:
    province_id: VA
    code:        B347
    name:        Cadrezzate
    latitude:    45.800333
    longitude:   8.644556
  caerano_di_san_marco:
    province_id: TV
    code:        B349
    name:        'Caerano di San Marco'
    latitude:    45.786278
    longitude:   12.003926
  cafasse:
    province_id: TO
    code:        B350
    name:        Cafasse
    latitude:    45.246087
    longitude:   7.51842
  caggiano:
    province_id: SA
    code:        B351
    name:        Caggiano
    latitude:    40.568926
    longitude:   15.494222
  cagli:
    province_id: PU
    code:        B352
    name:        Cagli
    latitude:    43.546807
    longitude:   12.648476
  cagliari:
    province_id: CA
    code:        B354
    name:        Cagliari
    latitude:    39.214903
    longitude:   9.109499
  caglio:
    province_id: CO
    code:        B355
    name:        Caglio
    latitude:    45.873463
    longitude:   9.240018
  cagnano_varano:
    province_id: FG
    code:        B357
    name:        'Cagnano Varano'
    latitude:    41.830168
    longitude:   15.77189
  cagnano_amiterno:
    province_id: AQ
    code:        B358
    name:        'Cagnano Amiterno'
    latitude:    42.452265
    longitude:   13.22479
  cagno:
    province_id: TN
    code:        B360
    name:        Cagnò
    latitude:    46.39403
    longitude:   11.042866
  caianello:
    province_id: CE
    code:        B361
    name:        Caianello
    latitude:    41.305203
    longitude:   14.085227
  caiazzo:
    province_id: CE
    code:        B362
    name:        Caiazzo
    latitude:    41.178154
    longitude:   14.364271
  caines:
    province_id: BZ
    code:        B364
    name:        Caines
    latitude:    46.701934
    longitude:   11.170957
  caino:
    province_id: BS
    code:        B365
    name:        Caino
    latitude:    45.610345
    longitude:   10.314232
  caiolo:
    province_id: SO
    code:        B366
    name:        Caiolo
    latitude:    46.150944
    longitude:   9.81563
  cairano:
    province_id: AV
    code:        B367
    name:        Cairano
    latitude:    40.894848
    longitude:   15.367601
  cairate:
    province_id: VA
    code:        B368
    name:        Cairate
    latitude:    45.690333
    longitude:   8.870648
  cairo_montenotte:
    province_id: SV
    code:        B369
    name:        'Cairo Montenotte'
    latitude:    44.39753
    longitude:   8.277573
  caivano:
    province_id: NA
    code:        B371
    name:        Caivano
    latitude:    40.958056
    longitude:   14.308095
  calabritto:
    province_id: AV
    code:        B374
    name:        Calabritto
    latitude:    40.786294
    longitude:   15.218203
  calalzo_di_cadore:
    province_id: BL
    code:        B375
    name:        'Calalzo di Cadore'
    latitude:    46.447225
    longitude:   12.383618
  calamandrana:
    province_id: AT
    code:        B376
    name:        Calamandrana
    latitude:    44.73813
    longitude:   8.339852
  calamonaci:
    province_id: AG
    code:        B377
    name:        Calamonaci
    latitude:    37.525485
    longitude:   13.290298
  calangianus:
    province_id: OT
    code:        B378
    name:        Calangianus
    latitude:    40.920963
    longitude:   9.195963
  calanna:
    province_id: RC
    code:        B379
    name:        Calanna
    latitude:    38.18487
    longitude:   15.723907
  calasca_castiglione:
    province_id: VB
    code:        B380
    name:        'Calasca Castiglione'
    latitude:    46.020565
    longitude:   8.214614
  calascibetta:
    province_id: EN
    code:        B381
    name:        Calascibetta
    latitude:    37.592061
    longitude:   14.271577
  calascio:
    province_id: AQ
    code:        B382
    name:        Calascio
    latitude:    42.326569
    longitude:   13.698109
  calasetta:
    province_id: CI
    code:        B383
    name:        Calasetta
    latitude:    39.110171
    longitude:   8.36872
  calatabiano:
    province_id: CT
    code:        B384
    name:        Calatabiano
    latitude:    37.822056
    longitude:   15.228926
  calatafimi:
    province_id: TP
    code:        B385
    name:        Calatafimi
    latitude:    37.914194
    longitude:   12.862534
  calavino:
    province_id: TN
    code:        B386
    name:        Calavino
    latitude:    46.045459
    longitude:   10.983256
  lungavilla:
    province_id: PV
    code:        B387
    name:        Lungavilla
    latitude:    45.043966
    longitude:   9.081497
  calcata:
    province_id: VT
    code:        B388
    name:        Calcata
    latitude:    42.219258
    longitude:   12.426491
  calceranica_al_lago:
    province_id: TN
    code:        B389
    name:        'Calceranica al Lago'
    latitude:    46.005648
    longitude:   11.24487
  calci:
    province_id: PI
    code:        B390
    name:        Calci
    latitude:    43.726544
    longitude:   10.515977
  calciano:
    province_id: MT
    code:        B391
    name:        Calciano
    latitude:    40.587827
    longitude:   16.192136
  calcinaia:
    province_id: PI
    code:        B392
    name:        Calcinaia
    latitude:    43.683083
    longitude:   10.617305
  calcinate:
    province_id: BG
    code:        B393
    name:        Calcinate
    latitude:    45.621259
    longitude:   9.800315
  calcinato:
    province_id: BS
    code:        B394
    name:        Calcinato
    latitude:    45.45813
    longitude:   10.414704
  calcio:
    province_id: BG
    code:        B395
    name:        Calcio
    latitude:    45.510481
    longitude:   9.852352
  calco:
    province_id: LC
    code:        B396
    name:        Calco
    latitude:    45.725167
    longitude:   9.413778
  caldaro_sulla_strada_del_vino:
    province_id: BZ
    code:        B397
    name:        'Caldaro sulla Strada del Vino'
    latitude:    46.414255
    longitude:   11.24237
  caldarola:
    province_id: MC
    code:        B398
    name:        Caldarola
    latitude:    43.138928
    longitude:   13.225953
  calderara_di_reno:
    province_id: BO
    code:        B399
    name:        'Calderara di Reno'
    latitude:    44.564074
    longitude:   11.272204
  caldes:
    province_id: TN
    code:        B400
    name:        Caldes
    latitude:    46.365115
    longitude:   10.942443
  caldiero:
    province_id: VR
    code:        B402
    name:        Caldiero
    latitude:    45.415315
    longitude:   11.178444
  caldogno:
    province_id: VI
    code:        B403
    name:        Caldogno
    latitude:    45.608759
    longitude:   11.503926
  caldonazzo:
    province_id: TN
    code:        B404
    name:        Caldonazzo
    latitude:    45.995944
    longitude:   11.265796
  calendasco:
    province_id: PC
    code:        B405
    name:        Calendasco
    latitude:    45.088296
    longitude:   9.597204
  calenzano:
    province_id: FI
    code:        B406
    name:        Calenzano
    latitude:    43.857056
    longitude:   11.163759
  calestano:
    province_id: PR
    code:        B408
    name:        Calestano
    latitude:    44.604241
    longitude:   10.124074
  calice_ligure:
    province_id: SV
    code:        B409
    name:        'Calice Ligure'
    latitude:    44.205535
    longitude:   8.295897
  calice_al_cornoviglio:
    province_id: SP
    code:        B410
    name:        'Calice al Cornoviglio'
    latitude:    44.243926
    longitude:   9.837204
  calimera:
    province_id: LE
    code:        B413
    name:        Calimera
    latitude:    40.251426
    longitude:   18.278759
  calitri:
    province_id: AV
    code:        B415
    name:        Calitri
    latitude:    40.899988
    longitude:   15.438121
  calizzano:
    province_id: SV
    code:        B416
    name:        Calizzano
    latitude:    44.235189
    longitude:   8.114852
  callabiana:
    province_id: BI
    code:        B417
    name:        Callabiana
    latitude:    45.631647
    longitude:   8.099417
  calliano:
    province_id: TN
    code:        B419
    name:        Calliano
    latitude:    45.934246
    longitude:   11.094321
  calolziocorte:
    province_id: LC
    code:        B423
    name:        Calolziocorte
    latitude:    45.800993
    longitude:   9.432454
  calopezzati:
    province_id: CS
    code:        B424
    name:        Calopezzati
    latitude:    39.56235
    longitude:   16.802885
  calosso:
    province_id: AT
    code:        B425
    name:        Calosso
    latitude:    44.739347
    longitude:   8.228081
  caloveto:
    province_id: CS
    code:        B426
    name:        Caloveto
    latitude:    39.506278
    longitude:   16.760796
  caltabellotta:
    province_id: AG
    code:        B427
    name:        Caltabellotta
    latitude:    37.578611
    longitude:   13.217576
  caltagirone:
    province_id: CT
    code:        B428
    name:        Caltagirone
    latitude:    37.237229
    longitude:   14.513117
  caltanissetta:
    province_id: CL
    code:        B429
    name:        Caltanissetta
    latitude:    37.489955
    longitude:   14.063163
  caltavuturo:
    province_id: PA
    code:        B430
    name:        Caltavuturo
    latitude:    37.822037
    longitude:   13.891111
  caltignaga:
    province_id: NO
    code:        B431
    name:        Caltignaga
    latitude:    45.519936
    longitude:   8.589862
  calto:
    province_id: RO
    code:        B432
    name:        Calto
    latitude:    44.992242
    longitude:   11.357782
  caltrano:
    province_id: VI
    code:        B433
    name:        Caltrano
    latitude:    45.774382
    longitude:   11.45302
  calusco_d_adda:
    province_id: BG
    code:        B434
    name:        'Calusco d''Adda'
    latitude:    45.692352
    longitude:   9.473759
  caluso:
    province_id: TO
    code:        B435
    name:        Caluso
    latitude:    45.305944
    longitude:   7.896889
  calvagese_della_riviera:
    province_id: BS
    code:        B436
    name:        'Calvagese della Riviera'
    latitude:    45.541607
    longitude:   10.446205
  calvanico:
    province_id: SA
    code:        B437
    name:        Calvanico
    latitude:    40.776259
    longitude:   14.828926
  calvatone:
    province_id: CR
    code:        B439
    name:        Calvatone
    latitude:    45.129537
    longitude:   10.442352
  calvello:
    province_id: PZ
    code:        B440
    name:        Calvello
    latitude:    40.477037
    longitude:   15.849555
  calvene:
    province_id: VI
    code:        B441
    name:        Calvene
    latitude:    45.768656
    longitude:   11.514711
  calvenzano:
    province_id: BG
    code:        B442
    name:        Calvenzano
    latitude:    45.497833
    longitude:   9.602518
  calvera:
    province_id: PZ
    code:        B443
    name:        Calvera
    latitude:    40.148938
    longitude:   16.143696
  calvi:
    province_id: BN
    code:        B444
    name:        Calvi
    latitude:    41.073215
    longitude:   14.866895
  calvi_risorta:
    province_id: CE
    code:        B445
    name:        'Calvi Risorta'
    latitude:    41.219345
    longitude:   14.129299
  calvi_dell_umbria:
    province_id: TR
    code:        B446
    name:        'Calvi dell''Umbria'
    latitude:    42.404241
    longitude:   12.568759
  calvignano:
    province_id: PV
    code:        B447
    name:        Calvignano
    latitude:    44.983294
    longitude:   9.166288
  calvignasco:
    province_id: MI
    code:        B448
    name:        Calvignasco
    latitude:    45.325646
    longitude:   9.026889
  calvisano:
    province_id: BS
    code:        B450
    name:        Calvisano
    latitude:    45.349241
    longitude:   10.346111
  calvizzano:
    province_id: NA
    code:        B452
    name:        Calvizzano
    latitude:    40.906574
    longitude:   14.186426
  camagna_monferrato:
    province_id: AL
    code:        B453
    name:        'Camagna Monferrato'
    latitude:    45.018778
    longitude:   8.430963
  camaiore:
    province_id: LU
    code:        B455
    name:        Camaiore
    latitude:    43.938216
    longitude:   10.304082
  camairago:
    province_id: LO
    code:        B456
    name:        Camairago
    latitude:    45.206259
    longitude:   9.728611
  camandona:
    province_id: BI
    code:        B457
    name:        Camandona
    latitude:    45.644793
    longitude:   8.099633
  camastra:
    province_id: AG
    code:        B460
    name:        Camastra
    latitude:    37.253348
    longitude:   13.792665
  cambiago:
    province_id: MI
    code:        B461
    name:        Cambiago
    latitude:    45.571743
    longitude:   9.42133
  cambiano:
    province_id: TO
    code:        B462
    name:        Cambiano
    latitude:    44.969389
    longitude:   7.77313
  cambiasca:
    province_id: VB
    code:        B463
    name:        Cambiasca
    latitude:    45.963395
    longitude:   8.544935
  camburzano:
    province_id: BI
    code:        B465
    name:        Camburzano
    latitude:    45.543759
    longitude:   8.003907
  sant_elena_sannita:
    province_id: IS
    code:        B466
    name:        'Sant''Elena Sannita'
    latitude:    41.575377
    longitude:   14.469363
  camerana:
    province_id: CN
    code:        B467
    name:        Camerana
    latitude:    44.422792
    longitude:   8.140629
  camerano:
    province_id: AN
    code:        B468
    name:        Camerano
    latitude:    43.529942
    longitude:   13.547903
  camerano_casasco:
    province_id: AT
    code:        B469
    name:        'Camerano Casasco'
    latitude:    44.992516
    longitude:   8.09089
  camerata_picena:
    province_id: AN
    code:        B470
    name:        'Camerata Picena'
    latitude:    43.579241
    longitude:   13.352055
  camerata_cornello:
    province_id: BG
    code:        B471
    name:        'Camerata Cornello'
    latitude:    45.899704
    longitude:   9.657518
  camerata_nuova:
    province_id: RM
    code:        B472
    name:        'Camerata Nuova'
    latitude:    42.019537
    longitude:   13.108778
  cameri:
    province_id: NO
    code:        B473
    name:        Cameri
    latitude:    45.504222
    longitude:   8.663907
  camerino:
    province_id: MC
    code:        B474
    name:        Camerino
    latitude:    43.140364
    longitude:   13.068774
  camerota:
    province_id: SA
    code:        B476
    name:        Camerota
    latitude:    40.029791
    longitude:   15.372753
  camigliano:
    province_id: CE
    code:        B477
    name:        Camigliano
    latitude:    41.181215
    longitude:   14.21261
  caminata:
    province_id: PC
    code:        B479
    name:        Caminata
    latitude:    44.910001
    longitude:   9.308799
  camini:
    province_id: RC
    code:        B481
    name:        Camini
    latitude:    38.43293
    longitude:   16.483972
  camino:
    province_id: AL
    code:        B482
    name:        Camino
    latitude:    45.160013
    longitude:   8.292033
  camino_al_tagliamento:
    province_id: UD
    code:        B483
    name:        'Camino al Tagliamento'
    latitude:    45.927981
    longitude:   12.946278
  camisano:
    province_id: CR
    code:        B484
    name:        Camisano
    latitude:    45.443893
    longitude:   9.744039
  camisano_vicentino:
    province_id: VI
    code:        B485
    name:        'Camisano Vicentino'
    latitude:    45.518037
    longitude:   11.708508
  cammarata:
    province_id: AG
    code:        B486
    name:        Cammarata
    latitude:    37.631111
    longitude:   13.632352
  camo:
    province_id: CN
    code:        B489
    name:        Camo
    latitude:    44.695443
    longitude:   8.19488
  camogli:
    province_id: GE
    code:        B490
    name:        Camogli
    latitude:    44.349202
    longitude:   9.155974
  chamois:
    province_id: AO
    code:        B491
    name:        Chamois
    latitude:    45.838435
    longitude:   7.622026
  campagna:
    province_id: SA
    code:        B492
    name:        Campagna
    latitude:    40.663339
    longitude:   15.106439
  campagna_lupia:
    province_id: VE
    code:        B493
    name:        'Campagna Lupia'
    latitude:    45.355824
    longitude:   12.096281
  castel_campagnano:
    province_id: CE
    code:        B494
    name:        'Castel Campagnano'
    latitude:    41.183759
    longitude:   14.45313
  campagnano_di_roma:
    province_id: RM
    code:        B496
    name:        'Campagnano di Roma'
    latitude:    42.140492
    longitude:   12.379969
  campagnatico:
    province_id: GR
    code:        B497
    name:        Campagnatico
    latitude:    42.883815
    longitude:   11.273528
  campagnola_cremasca:
    province_id: CR
    code:        B498
    name:        'Campagnola Cremasca'
    latitude:    45.399687
    longitude:   9.670332
  campagnola_emilia:
    province_id: RE
    code:        B499
    name:        'Campagnola Emilia'
    latitude:    44.840333
    longitude:   10.75813
  campana:
    province_id: CS
    code:        B500
    name:        Campana
    latitude:    39.414704
    longitude:   16.823148
  camparada:
    province_id: MI
    code:        B501
    name:        Camparada
    latitude:    45.654245
    longitude:   9.322823
  campegine:
    province_id: RE
    code:        B502
    name:        Campegine
    latitude:    44.766216
    longitude:   10.541673
  campello_sul_clitunno:
    province_id: PG
    code:        B504
    name:        'Campello sul Clitunno'
    latitude:    42.820357
    longitude:   12.776778
  campertogno:
    province_id: VC
    code:        B505
    name:        Campertogno
    latitude:    45.79987
    longitude:   8.033296
  campi_salentina:
    province_id: LE
    code:        B506
    name:        'Campi Salentina'
    latitude:    40.400167
    longitude:   18.019074
  campi_bisenzio:
    province_id: FI
    code:        B507
    name:        'Campi Bisenzio'
    latitude:    43.825648
    longitude:   11.133444
  campiglia_cervo:
    province_id: BI
    code:        B508
    name:        'Campiglia Cervo'
    latitude:    45.663414
    longitude:   7.999847
  campiglia_marittima:
    province_id: LI
    code:        B509
    name:        'Campiglia Marittima'
    latitude:    43.060321
    longitude:   10.614468
  valprato_soana:
    province_id: TO
    code:        B510
    name:        'Valprato Soana'
    latitude:    45.52216
    longitude:   7.550154
  campiglia_dei_berici:
    province_id: VI
    code:        B511
    name:        'Campiglia dei Berici'
    latitude:    45.335796
    longitude:   11.543444
  campiglione_fenile:
    province_id: TO
    code:        B512
    name:        'Campiglione Fenile'
    latitude:    44.80267
    longitude:   7.324765
  campione_d_italia:
    province_id: CO
    code:        B513
    name:        'Campione d''Italia'
    latitude:    45.969377
    longitude:   8.970647
  campitello_di_fassa:
    province_id: TN
    code:        B514
    name:        'Campitello di Fassa'
    latitude:    46.47737
    longitude:   11.743148
  campli:
    province_id: TE
    code:        B515
    name:        Campli
    latitude:    42.729534
    longitude:   13.693334
  campo_calabro:
    province_id: RC
    code:        B516
    name:        'Campo Calabro'
    latitude:    38.216982
    longitude:   15.660159
  campobasso:
    province_id: CB
    code:        B519
    name:        Campobasso
    latitude:    41.560086
    longitude:   14.664799
  campobello_di_licata:
    province_id: AG
    code:        B520
    name:        'Campobello di Licata'
    latitude:    37.259537
    longitude:   13.919241
  campobello_di_mazara:
    province_id: TP
    code:        B521
    name:        'Campobello di Mazara'
    latitude:    37.635601
    longitude:   12.747607
  campochiaro:
    province_id: CB
    code:        B522
    name:        Campochiaro
    latitude:    41.44834
    longitude:   14.507443
  campodarsego:
    province_id: PD
    code:        B524
    name:        Campodarsego
    latitude:    45.502689
    longitude:   11.90759
  campodenno:
    province_id: TN
    code:        B525
    name:        Campodenno
    latitude:    46.258926
    longitude:   11.034222
  campo_di_giove:
    province_id: AQ
    code:        B526
    name:        'Campo di Giove'
    latitude:    42.011193
    longitude:   14.034882
  campodimele:
    province_id: LT
    code:        B527
    name:        Campodimele
    latitude:    41.387239
    longitude:   13.532182
  campodipietra:
    province_id: CB
    code:        B528
    name:        Campodipietra
    latitude:    41.558148
    longitude:   14.747056
  campo_di_trens:
    province_id: BZ
    code:        B529
    name:        'Campo di Trens'
    latitude:    46.871534
    longitude:   11.48434
  campodolcino:
    province_id: SO
    code:        B530
    name:        Campodolcino
    latitude:    46.403006
    longitude:   9.353409
  campodoro:
    province_id: PD
    code:        B531
    name:        Campodoro
    latitude:    45.491259
    longitude:   11.753148
  campofelice_di_roccella:
    province_id: PA
    code:        B532
    name:        'Campofelice di Roccella'
    latitude:    37.991087
    longitude:   13.886292
  campofelice_di_fitalia:
    province_id: PA
    code:        B533
    name:        'Campofelice di Fitalia'
    latitude:    37.826712
    longitude:   13.486224
  campofilone:
    province_id: AP
    code:        B534
    name:        Campofilone
    latitude:    43.08032
    longitude:   13.817827
  campofiorito:
    province_id: PA
    code:        B535
    name:        Campofiorito
    latitude:    37.754852
    longitude:   13.269704
  campoformido:
    province_id: UD
    code:        B536
    name:        Campoformido
    latitude:    46.019669
    longitude:   13.160666
  campofranco:
    province_id: CL
    code:        B537
    name:        Campofranco
    latitude:    37.51237
    longitude:   13.713444
  campo_ligure:
    province_id: GE
    code:        B538
    name:        'Campo Ligure'
    latitude:    44.538778
    longitude:   8.699222
  campogalliano:
    province_id: MO
    code:        B539
    name:        Campogalliano
    latitude:    44.690208
    longitude:   10.843799
  champorcher:
    province_id: AO
    code:        B540
    name:        Champorcher
    latitude:    45.624235
    longitude:   7.620673
  campolattaro:
    province_id: BN
    code:        B541
    name:        Campolattaro
    latitude:    41.287576
    longitude:   14.733285
  campoli_del_monte_taburno:
    province_id: BN
    code:        B542
    name:        'Campoli del Monte Taburno'
    latitude:    41.132131
    longitude:   14.646593
  campoli_appennino:
    province_id: FR
    code:        B543
    name:        'Campoli Appennino'
    latitude:    41.736722
    longitude:   13.684704
  campolieto:
    province_id: CB
    code:        B544
    name:        Campolieto
    latitude:    41.632981
    longitude:   14.767815
  campolongo_al_torre:
    province_id: UD
    code:        B545
    name:        'Campolongo al Torre'
    latitude:    45.865167
    longitude:   13.395333
  campolongo_maggiore:
    province_id: VE
    code:        B546
    name:        'Campolongo Maggiore'
    latitude:    45.322842
    longitude:   12.045084
  campolongo_sul_brenta:
    province_id: VI
    code:        B547
    name:        'Campolongo sul Brenta'
    latitude:    45.828148
    longitude:   11.701889
  campomaggiore:
    province_id: PZ
    code:        B549
    name:        Campomaggiore
    latitude:    40.568321
    longitude:   16.074307
  campomarino:
    province_id: CB
    code:        B550
    name:        Campomarino
    latitude:    41.957055
    longitude:   15.034704
  campomorone:
    province_id: GE
    code:        B551
    name:        Campomorone
    latitude:    44.511259
    longitude:   8.886278
  campo_nell_elba:
    province_id: LI
    code:        B553
    name:        'Campo nell''Elba'
    latitude:    42.74894
    longitude:   10.234373
  camponogara:
    province_id: VE
    code:        B554
    name:        Camponogara
    latitude:    45.383409
    longitude:   12.072398
  campora:
    province_id: SA
    code:        B555
    name:        Campora
    latitude:    40.306407
    longitude:   15.293296
  camporeale:
    province_id: PA
    code:        B556
    name:        Camporeale
    latitude:    37.898284
    longitude:   13.094826
  camporgiano:
    province_id: LU
    code:        B557
    name:        Camporgiano
    latitude:    44.15927
    longitude:   10.333373
  camporosso:
    province_id: IM
    code:        B559
    name:        Camporosso
    latitude:    43.810166
    longitude:   7.630435
  camporotondo_etneo:
    province_id: CT
    code:        B561
    name:        'Camporotondo Etneo'
    latitude:    37.566722
    longitude:   15.004074
  camporotondo_di_fiastrone:
    province_id: MC
    code:        B562
    name:        'Camporotondo di Fiastrone'
    latitude:    43.132526
    longitude:   13.267746
  camposampiero:
    province_id: PD
    code:        B563
    name:        Camposampiero
    latitude:    45.569389
    longitude:   11.936407
  campo_san_martino:
    province_id: PD
    code:        B564
    name:        'Campo San Martino'
    latitude:    45.545585
    longitude:   11.811629
  camposano:
    province_id: NA
    code:        B565
    name:        Camposano
    latitude:    40.9533
    longitude:   14.529546
  camposanto:
    province_id: MO
    code:        B566
    name:        Camposanto
    latitude:    44.788173
    longitude:   11.137617
  campospinoso:
    province_id: PV
    code:        B567
    name:        Campospinoso
    latitude:    45.096407
    longitude:   9.245648
  campotosto:
    province_id: AQ
    code:        B569
    name:        Campotosto
    latitude:    42.559871
    longitude:   13.367855
  campo_tures:
    province_id: BZ
    code:        B570
    name:        'Campo Tures'
    latitude:    46.919982
    longitude:   11.95522
  camugnano:
    province_id: BO
    code:        B572
    name:        Camugnano
    latitude:    44.171987
    longitude:   11.084282
  canale:
    province_id: CN
    code:        B573
    name:        Canale
    latitude:    44.799537
    longitude:   7.998444
  canale_d_agordo:
    province_id: BL
    code:        B574
    name:        'Canale D''Agordo'
    latitude:    46.357056
    longitude:   11.914556
  canale_monterano:
    province_id: RM
    code:        B576
    name:        'Canale Monterano'
    latitude:    42.137644
    longitude:   12.103201
  canal_san_bovo:
    province_id: TN
    code:        B577
    name:        'Canal San Bovo'
    latitude:    46.156036
    longitude:   11.733516
  canaro:
    province_id: RO
    code:        B578
    name:        Canaro
    latitude:    44.936124
    longitude:   11.67667
  canazei:
    province_id: TN
    code:        B579
    name:        Canazei
    latitude:    46.476735
    longitude:   11.772458
  cancellara:
    province_id: PZ
    code:        B580
    name:        Cancellara
    latitude:    40.731259
    longitude:   15.926741
  cancello_ed_arnone:
    province_id: CE
    code:        B581
    name:        'Cancello ed Arnone'
    latitude:    41.074922
    longitude:   14.025703
  canda:
    province_id: RO
    code:        B582
    name:        Canda
    latitude:    45.034074
    longitude:   11.506722
  candela:
    province_id: FG
    code:        B584
    name:        Candela
    latitude:    41.13578
    longitude:   15.514668
  candelo:
    province_id: BI
    code:        B586
    name:        Candelo
    latitude:    45.544998
    longitude:   8.109307
  candia_lomellina:
    province_id: PV
    code:        B587
    name:        'Candia Lomellina'
    latitude:    45.179869
    longitude:   8.595935
  candia_canavese:
    province_id: TO
    code:        B588
    name:        'Candia Canavese'
    latitude:    45.328759
    longitude:   7.886259
  candiana:
    province_id: PD
    code:        B589
    name:        Candiana
    latitude:    45.222037
    longitude:   11.990167
  candida:
    province_id: AV
    code:        B590
    name:        Candida
    latitude:    40.943444
    longitude:   14.875
  candidoni:
    province_id: RC
    code:        B591
    name:        Candidoni
    latitude:    38.506574
    longitude:   16.087204
  candiolo:
    province_id: TO
    code:        B592
    name:        Candiolo
    latitude:    44.960333
    longitude:   7.602815
  canegrate:
    province_id: MI
    code:        B593
    name:        Canegrate
    latitude:    45.570088
    longitude:   8.928876
  canelli:
    province_id: AT
    code:        B594
    name:        Canelli
    latitude:    44.719289
    longitude:   8.287012
  orvinio:
    province_id: RI
    code:        B595
    name:        Orvinio
    latitude:    42.131671
    longitude:   12.937714
  canepina:
    province_id: VT
    code:        B597
    name:        Canepina
    latitude:    42.383296
    longitude:   12.232981
  caneva:
    province_id: PN
    code:        B598
    name:        Caneva
    latitude:    45.969537
    longitude:   12.451741
  canevino:
    province_id: PV
    code:        B599
    name:        Canevino
    latitude:    44.937561
    longitude:   9.277657
  canicatti:
    province_id: AG
    code:        B602
    name:        Canicattì
    latitude:    37.360875
    longitude:   13.85016
  canicattini_bagni:
    province_id: SR
    code:        B603
    name:        'Canicattini Bagni'
    latitude:    37.034074
    longitude:   15.064222
  canino:
    province_id: VT
    code:        B604
    name:        Canino
    latitude:    42.465
    longitude:   11.752204
  canischio:
    province_id: TO
    code:        B605
    name:        Canischio
    latitude:    45.374526
    longitude:   7.59583
  canistro:
    province_id: AQ
    code:        B606
    name:        Canistro
    latitude:    41.941626
    longitude:   13.413443
  canna:
    province_id: CS
    code:        B607
    name:        Canna
    latitude:    40.095018
    longitude:   16.505167
  cannalonga:
    province_id: SA
    code:        B608
    name:        Cannalonga
    latitude:    40.244386
    longitude:   15.293277
  cannara:
    province_id: PG
    code:        B609
    name:        Cannara
    latitude:    42.994429
    longitude:   12.582873
  cannero_riviera:
    province_id: VB
    code:        B610
    name:        'Cannero Riviera'
    latitude:    46.022321
    longitude:   8.679362
  canneto_sull_oglio:
    province_id: MN
    code:        B612
    name:        'Canneto sull''Oglio'
    latitude:    45.153778
    longitude:   10.382056
  canneto_pavese:
    province_id: PV
    code:        B613
    name:        'Canneto Pavese'
    latitude:    45.051407
    longitude:   9.279852
  cannobio:
    province_id: VB
    code:        B615
    name:        Cannobio
    latitude:    46.06063
    longitude:   8.6975
  cannole:
    province_id: LE
    code:        B616
    name:        Cannole
    latitude:    40.16737
    longitude:   18.366889
  canolo:
    province_id: RC
    code:        B617
    name:        Canolo
    latitude:    38.316111
    longitude:   16.200796
  canonica_d_adda:
    province_id: BG
    code:        B618
    name:        'Canonica d''Adda'
    latitude:    45.576741
    longitude:   9.542833
  canosa_di_puglia:
    province_id: BA
    code:        B619
    name:        'Canosa di Puglia'
    latitude:    41.222498
    longitude:   16.066025
  canosa_sannita:
    province_id: CH
    code:        B620
    name:        'Canosa Sannita'
    latitude:    42.299846
    longitude:   14.30632
  canosio:
    province_id: CN
    code:        B621
    name:        Canosio
    latitude:    44.455587
    longitude:   7.082381
  cansano:
    province_id: AQ
    code:        B624
    name:        Cansano
    latitude:    42.005481
    longitude:   14.012815
  cantagallo:
    province_id: PO
    code:        B626
    name:        Cantagallo
    latitude:    44.02195
    longitude:   11.080092
  cantalice:
    province_id: RI
    code:        B627
    name:        Cantalice
    latitude:    42.468661
    longitude:   12.903366
  cantalupa:
    province_id: TO
    code:        B628
    name:        Cantalupa
    latitude:    44.947056
    longitude:   7.331407
  cantalupo_ligure:
    province_id: AL
    code:        B629
    name:        'Cantalupo Ligure'
    latitude:    44.719241
    longitude:   9.046111
  cantalupo_nel_sannio:
    province_id: IS
    code:        B630
    name:        'Cantalupo nel Sannio'
    latitude:    41.522815
    longitude:   14.393926
  cantalupo_in_sabina:
    province_id: RI
    code:        B631
    name:        'Cantalupo in Sabina'
    latitude:    42.307204
    longitude:   12.648296
  mandela:
    province_id: RM
    code:        B632
    name:        Mandela
    latitude:    42.029217
    longitude:   12.922851
  cantarana:
    province_id: AT
    code:        B633
    name:        Cantarana
    latitude:    44.902647
    longitude:   8.028259
  cantello:
    province_id: VA
    code:        B634
    name:        Cantello
    latitude:    45.823444
    longitude:   8.897037
  canterano:
    province_id: RM
    code:        B635
    name:        Canterano
    latitude:    41.943642
    longitude:   13.038826
  cantiano:
    province_id: PU
    code:        B636
    name:        Cantiano
    latitude:    43.476145
    longitude:   12.627293
  cantoira:
    province_id: TO
    code:        B637
    name:        Cantoira
    latitude:    45.339529
    longitude:   7.387041
  cantu:
    province_id: CO
    code:        B639
    name:        Cantù
    latitude:    45.739505
    longitude:   9.129394
  canzano:
    province_id: TE
    code:        B640
    name:        Canzano
    latitude:    42.646741
    longitude:   13.805
  canzo:
    province_id: CO
    code:        B641
    name:        Canzo
    latitude:    45.850713
    longitude:   9.27422
  caorle:
    province_id: VE
    code:        B642
    name:        Caorle
    latitude:    45.594852
    longitude:   12.870796
  caorso:
    province_id: PC
    code:        B643
    name:        Caorso
    latitude:    45.049556
    longitude:   9.872204
  capaccio:
    province_id: SA
    code:        B644
    name:        Capaccio
    latitude:    40.425481
    longitude:   15.081722
  capaci:
    province_id: PA
    code:        B645
    name:        Capaci
    latitude:    38.171642
    longitude:   13.239275
  capalbio:
    province_id: GR
    code:        B646
    name:        Capalbio
    latitude:    42.454224
    longitude:   11.421535
  capannoli:
    province_id: PI
    code:        B647
    name:        Capannoli
    latitude:    43.590553
    longitude:   10.670666
  capannori:
    province_id: LU
    code:        B648
    name:        Capannori
    latitude:    43.842662
    longitude:   10.569406
  capena:
    province_id: RM
    code:        B649
    name:        Capena
    latitude:    42.142667
    longitude:   12.541722
  capergnanica:
    province_id: CR
    code:        B650
    name:        Capergnanica
    latitude:    45.338611
    longitude:   9.644556
  capestrano:
    province_id: AQ
    code:        B651
    name:        Capestrano
    latitude:    42.268571
    longitude:   13.766123
  capiago_intimiano:
    province_id: CO
    code:        B653
    name:        'Capiago Intimiano'
    latitude:    45.773067
    longitude:   9.122753
  capistrano:
    province_id: VV
    code:        B655
    name:        Capistrano
    latitude:    38.691286
    longitude:   16.289943
  capistrello:
    province_id: AQ
    code:        B656
    name:        Capistrello
    latitude:    41.965729
    longitude:   13.389809
  capitignano:
    province_id: AQ
    code:        B658
    name:        Capitignano
    latitude:    42.520421
    longitude:   13.30088
  capizzi:
    province_id: ME
    code:        B660
    name:        Capizzi
    latitude:    37.848907
    longitude:   14.479074
  capizzone:
    province_id: BG
    code:        B661
    name:        Capizzone
    latitude:    45.785481
    longitude:   9.568926
  ponte_nelle_alpi:
    province_id: BL
    code:        B662
    name:        'Ponte nelle Alpi'
    latitude:    46.183148
    longitude:   12.279241
  capodimonte:
    province_id: VT
    code:        B663
    name:        Capodimonte
    latitude:    42.5475
    longitude:   11.905796
  capo_di_ponte:
    province_id: BS
    code:        B664
    name:        'Capo di Ponte'
    latitude:    46.030298
    longitude:   10.342453
  capo_d_orlando:
    province_id: ME
    code:        B666
    name:        'Capo D''Orlando'
    latitude:    38.163458
    longitude:   14.746001
  capodrise:
    province_id: CE
    code:        B667
    name:        Capodrise
    latitude:    41.045315
    longitude:   14.304556
  capoliveri:
    province_id: LI
    code:        B669
    name:        Capoliveri
    latitude:    42.742873
    longitude:   10.378997
  capolona:
    province_id: AR
    code:        B670
    name:        Capolona
    latitude:    43.569866
    longitude:   11.866892
  caponago:
    province_id: MI
    code:        B671
    name:        Caponago
    latitude:    45.565801
    longitude:   9.375702
  caporciano:
    province_id: AQ
    code:        B672
    name:        Caporciano
    latitude:    42.251143
    longitude:   13.674709
  caposele:
    province_id: AV
    code:        B674
    name:        Caposele
    latitude:    40.815467
    longitude:   15.223975
  capoterra:
    province_id: CA
    code:        B675
    name:        Capoterra
    latitude:    39.179113
    longitude:   8.966949
  capovalle:
    province_id: BS
    code:        B676
    name:        Capovalle
    latitude:    45.75399
    longitude:   10.544277
  cappadocia:
    province_id: AQ
    code:        B677
    name:        Cappadocia
    latitude:    42.00584
    longitude:   13.280085
  cappella_maggiore:
    province_id: TV
    code:        B678
    name:        'Cappella Maggiore'
    latitude:    45.97813
    longitude:   12.342352
  cappella_cantone:
    province_id: CR
    code:        B679
    name:        'Cappella Cantone'
    latitude:    45.247516
    longitude:   9.83939
  cappella_de_picenardi:
    province_id: CR
    code:        B680
    name:        'Cappella De'' Picenardi'
    latitude:    45.159521
    longitude:   10.231117
  cappelle_sul_tavo:
    province_id: PE
    code:        B681
    name:        'Cappelle sul Tavo'
    latitude:    42.465017
    longitude:   14.103223
  capracotta:
    province_id: IS
    code:        B682
    name:        Capracotta
    latitude:    41.834389
    longitude:   14.265333
  capraia_e_limite:
    province_id: FI
    code:        B684
    name:        'Capraia e Limite'
    latitude:    43.745253
    longitude:   10.984463
  capraia_isola:
    province_id: LI
    code:        B685
    name:        'Capraia Isola'
    latitude:    43.050583
    longitude:   9.842994
  capralba:
    province_id: CR
    code:        B686
    name:        Capralba
    latitude:    45.445
    longitude:   9.644389
  capranica_prenestina:
    province_id: RM
    code:        B687
    name:        'Capranica Prenestina'
    latitude:    41.86378
    longitude:   12.950731
  capranica:
    province_id: VT
    code:        B688
    name:        Capranica
    latitude:    42.25987
    longitude:   12.173148
  marzabotto:
    province_id: BO
    code:        B689
    name:        Marzabotto
    latitude:    44.341889
    longitude:   11.205796
  caprarica_di_lecce:
    province_id: LE
    code:        B690
    name:        'Caprarica di Lecce'
    latitude:    40.261009
    longitude:   18.245515
  caprarola:
    province_id: VT
    code:        B691
    name:        Caprarola
    latitude:    42.324104
    longitude:   12.242618
  caprauna:
    province_id: CN
    code:        B692
    name:        Caprauna
    latitude:    44.106882
    longitude:   7.970549
  caprese_michelangelo:
    province_id: AR
    code:        B693
    name:        'Caprese Michelangelo'
    latitude:    43.640963
    longitude:   11.985963
  caprezzo:
    province_id: VB
    code:        B694
    name:        Caprezzo
    latitude:    45.981981
    longitude:   8.56236
  capri_leone:
    province_id: ME
    code:        B695
    name:        'Capri Leone'
    latitude:    38.087364
    longitude:   14.729692
  capri:
    province_id: NA
    code:        B696
    name:        Capri
    latitude:    40.55091
    longitude:   14.242926
  capriana:
    province_id: TN
    code:        B697
    name:        Capriana
    latitude:    46.262504
    longitude:   11.338743
  capriano_del_colle:
    province_id: BS
    code:        B698
    name:        'Capriano del Colle'
    latitude:    45.454272
    longitude:   10.128892
  capriata_d_orba:
    province_id: AL
    code:        B701
    name:        'Capriata D''Orba'
    latitude:    44.728813
    longitude:   8.689513
  capriate_san_gervasio:
    province_id: BG
    code:        B703
    name:        'Capriate San Gervasio'
    latitude:    45.608377
    longitude:   9.527926
  capriati_a_volturno:
    province_id: CE
    code:        B704
    name:        'Capriati a Volturno'
    latitude:    41.466629
    longitude:   14.146767
  caprie:
    province_id: TO
    code:        B705
    name:        Caprie
    latitude:    45.119852
    longitude:   7.333148
  capriglia_irpina:
    province_id: AV
    code:        B706
    name:        'Capriglia Irpina'
    latitude:    40.961426
    longitude:   14.77813
  capriglio:
    province_id: AT
    code:        B707
    name:        Capriglio
    latitude:    45.004514
    longitude:   8.009507
  caprile:
    province_id: BI
    code:        B708
    name:        Caprile
    latitude:    45.689086
    longitude:   8.215482
  caprino_veronese:
    province_id: VR
    code:        B709
    name:        'Caprino Veronese'
    latitude:    45.605963
    longitude:   10.796259
  caprino_bergamasco:
    province_id: BG
    code:        B710
    name:        'Caprino Bergamasco'
    latitude:    45.746259
    longitude:   9.482815
  capriolo:
    province_id: BS
    code:        B711
    name:        Capriolo
    latitude:    45.638929
    longitude:   9.933937
  capriva_del_friuli:
    province_id: GO
    code:        B712
    name:        'Capriva del Friuli'
    latitude:    45.942352
    longitude:   13.514537
  capua:
    province_id: CE
    code:        B715
    name:        Capua
    latitude:    41.100796
    longitude:   14.221111
  capurso:
    province_id: BA
    code:        B716
    name:        Capurso
    latitude:    41.047981
    longitude:   16.922518
  caraffa_di_catanzaro:
    province_id: CZ
    code:        B717
    name:        'Caraffa di Catanzaro'
    latitude:    38.882352
    longitude:   16.486407
  caraffa_del_bianco:
    province_id: RC
    code:        B718
    name:        'Caraffa del Bianco'
    latitude:    38.092498
    longitude:   16.086467
  caraglio:
    province_id: CN
    code:        B719
    name:        Caraglio
    latitude:    44.420481
    longitude:   7.434074
  caramagna_piemonte:
    province_id: CN
    code:        B720
    name:        'Caramagna Piemonte'
    latitude:    44.780274
    longitude:   7.738973
  caramanico_terme:
    province_id: PE
    code:        B722
    name:        'Caramanico Terme'
    latitude:    42.15727
    longitude:   14.002929
  carano:
    province_id: TN
    code:        B723
    name:        Carano
    latitude:    46.292518
    longitude:   11.440963
  carapelle:
    province_id: FG
    code:        B724
    name:        Carapelle
    latitude:    41.366259
    longitude:   15.694704
  carapelle_calvisio:
    province_id: AQ
    code:        B725
    name:        'Carapelle Calvisio'
    latitude:    42.299644
    longitude:   13.682532
  carasco:
    province_id: GE
    code:        B726
    name:        Carasco
    latitude:    44.350443
    longitude:   9.34657
  carassai:
    province_id: AP
    code:        B727
    name:        Carassai
    latitude:    43.031731
    longitude:   13.685735
  carate_brianza:
    province_id: MI
    code:        B729
    name:        'Carate Brianza'
    latitude:    45.675951
    longitude:   9.242986
  carate_urio:
    province_id: CO
    code:        B730
    name:        'Carate Urio'
    latitude:    45.872833
    longitude:   9.123296
  caravaggio:
    province_id: BG
    code:        B731
    name:        Caravaggio
    latitude:    45.497306
    longitude:   9.643903
  caravate:
    province_id: VA
    code:        B732
    name:        Caravate
    latitude:    45.879852
    longitude:   8.659074
  caravino:
    province_id: TO
    code:        B733
    name:        Caravino
    latitude:    45.399222
    longitude:   7.961407
  caravonica:
    province_id: IM
    code:        B734
    name:        Caravonica
    latitude:    43.994167
    longitude:   7.958602
  carbognano:
    province_id: VT
    code:        B735
    name:        Carbognano
    latitude:    42.332667
    longitude:   12.265315
  carbonara_scrivia:
    province_id: AL
    code:        B736
    name:        'Carbonara Scrivia'
    latitude:    44.850167
    longitude:   8.870963
  villasimius:
    province_id: CA
    code:        B738
    name:        Villasimius
    latitude:    39.142946
    longitude:   9.51975
  carbonara_di_po:
    province_id: MN
    code:        B739
    name:        'Carbonara di Po'
    latitude:    45.036369
    longitude:   11.227849
  carbonara_di_nola:
    province_id: NA
    code:        B740
    name:        'Carbonara di Nola'
    latitude:    40.875456
    longitude:   14.578784
  carbonara_al_ticino:
    province_id: PV
    code:        B741
    name:        'Carbonara al Ticino'
    latitude:    45.166741
    longitude:   9.062667
  carbonate:
    province_id: CO
    code:        B742
    name:        Carbonate
    latitude:    39.743194
    longitude:   -107.345589
  carbone:
    province_id: PZ
    code:        B743
    name:        Carbone
    latitude:    40.143444
    longitude:   16.090333
  carbonera:
    province_id: TV
    code:        B744
    name:        Carbonera
    latitude:    45.684537
    longitude:   12.285481
  carbonia:
    province_id: CI
    code:        B745
    name:        Carbonia
    latitude:    39.166407
    longitude:   8.528926
  carcare:
    province_id: SV
    code:        B748
    name:        Carcare
    latitude:    44.356427
    longitude:   8.291221
  carceri:
    province_id: PD
    code:        B749
    name:        Carceri
    latitude:    45.197037
    longitude:   11.620315
  carcoforo:
    province_id: VC
    code:        B752
    name:        Carcoforo
    latitude:    45.908331
    longitude:   8.049702
  cardano_al_campo:
    province_id: VA
    code:        B754
    name:        'Cardano al Campo'
    latitude:    45.644859
    longitude:   8.772234
  carde:
    province_id: CN
    code:        B755
    name:        Cardè
    latitude:    44.745481
    longitude:   7.478759
  cardeto:
    province_id: RC
    code:        B756
    name:        Cardeto
    latitude:    38.08563
    longitude:   15.767518
  cardinale:
    province_id: CZ
    code:        B758
    name:        Cardinale
    latitude:    38.650988
    longitude:   16.38572
  cardito:
    province_id: NA
    code:        B759
    name:        Cardito
    latitude:    40.945589
    longitude:   14.298699
  careggine:
    province_id: LU
    code:        B760
    name:        Careggine
    latitude:    44.120944
    longitude:   10.326407
  carema:
    province_id: TO
    code:        B762
    name:        Carema
    latitude:    45.584537
    longitude:   7.811889
  carenno:
    province_id: LC
    code:        B763
    name:        Carenno
    latitude:    45.801971
    longitude:   9.460487
  carentino:
    province_id: AL
    code:        B765
    name:        Carentino
    latitude:    44.828132
    longitude:   8.470074
  careri:
    province_id: RC
    code:        B766
    name:        Careri
    latitude:    38.177667
    longitude:   16.118778
  caresana:
    province_id: VC
    code:        B767
    name:        Caresana
    latitude:    45.221889
    longitude:   8.506426
  caresanablot:
    province_id: VC
    code:        B768
    name:        Caresanablot
    latitude:    45.358463
    longitude:   8.39313
  carezzano:
    province_id: AL
    code:        B769
    name:        Carezzano
    latitude:    44.808167
    longitude:   8.901324
  carfizzi:
    province_id: KR
    code:        B771
    name:        Carfizzi
    latitude:    39.307381
    longitude:   16.974784
  cargeghe:
    province_id: SS
    code:        B772
    name:        Cargeghe
    latitude:    40.671137
    longitude:   8.614942
  cariati:
    province_id: CS
    code:        B774
    name:        Cariati
    latitude:    39.493296
    longitude:   16.960333
  carife:
    province_id: AV
    code:        B776
    name:        Carife
    latitude:    41.027352
    longitude:   15.209852
  carignano:
    province_id: TO
    code:        B777
    name:        Carignano
    latitude:    44.907981
    longitude:   7.674389
  carimate:
    province_id: CO
    code:        B778
    name:        Carimate
    latitude:    45.703907
    longitude:   9.111722
  carinaro:
    province_id: CE
    code:        B779
    name:        Carinaro
    latitude:    40.983907
    longitude:   14.220648
  carini:
    province_id: PA
    code:        B780
    name:        Carini
    latitude:    38.131624
    longitude:   13.180933
  carinola:
    province_id: CE
    code:        B781
    name:        Carinola
    latitude:    41.186542
    longitude:   13.98259
  carisio:
    province_id: VC
    code:        B782
    name:        Carisio
    latitude:    45.410315
    longitude:   8.200167
  carisolo:
    province_id: TN
    code:        B783
    name:        Carisolo
    latitude:    46.16987
    longitude:   10.760019
  carlantino:
    province_id: FG
    code:        B784
    name:        Carlantino
    latitude:    41.591068
    longitude:   14.980787
  carlazzo:
    province_id: CO
    code:        B785
    name:        Carlazzo
    latitude:    46.049177
    longitude:   9.15927
  carlentini:
    province_id: SR
    code:        B787
    name:        Carlentini
    latitude:    37.273732
    longitude:   15.015929
  carlino:
    province_id: UD
    code:        B788
    name:        Carlino
    latitude:    45.803444
    longitude:   13.189556
  carloforte:
    province_id: CI
    code:        B789
    name:        Carloforte
    latitude:    39.145667
    longitude:   8.306271
  carlopoli:
    province_id: CZ
    code:        B790
    name:        Carlopoli
    latitude:    39.057833
    longitude:   16.455796
  carmagnola:
    province_id: TO
    code:        B791
    name:        Carmagnola
    latitude:    44.845485
    longitude:   7.719197
  carmiano:
    province_id: LE
    code:        B792
    name:        Carmiano
    latitude:    40.345963
    longitude:   18.043926
  carmignano:
    province_id: PO
    code:        B794
    name:        Carmignano
    latitude:    43.812352
    longitude:   11.016574
  carmignano_di_brenta:
    province_id: PD
    code:        B795
    name:        'Carmignano di Brenta'
    latitude:    45.630226
    longitude:   11.706972
  carnago:
    province_id: VA
    code:        B796
    name:        Carnago
    latitude:    45.723148
    longitude:   8.835315
  carnate:
    province_id: MI
    code:        B798
    name:        Carnate
    latitude:    45.650762
    longitude:   9.379103
  cornedo_all_isarco:
    province_id: BZ
    code:        B799
    name:        'Cornedo all''Isarco'
    latitude:    46.493827
    longitude:   11.393254
  carobbio_degli_angeli:
    province_id: BG
    code:        B801
    name:        'Carobbio degli Angeli'
    latitude:    45.666278
    longitude:   9.830333
  carolei:
    province_id: CS
    code:        B802
    name:        Carolei
    latitude:    39.254429
    longitude:   16.219532
  carona:
    province_id: BG
    code:        B803
    name:        Carona
    latitude:    46.024083
    longitude:   9.789957
  caronia:
    province_id: ME
    code:        B804
    name:        Caronia
    latitude:    38.024242
    longitude:   14.440958
  caronno_pertusella:
    province_id: VA
    code:        B805
    name:        'Caronno Pertusella'
    latitude:    45.598213
    longitude:   9.049075
  caronno_varesino:
    province_id: VA
    code:        B807
    name:        'Caronno Varesino'
    latitude:    45.736722
    longitude:   8.832815
  carosino:
    province_id: TA
    code:        B808
    name:        Carosino
    latitude:    40.466889
    longitude:   17.398444
  carovigno:
    province_id: BR
    code:        B809
    name:        Carovigno
    latitude:    40.709074
    longitude:   17.655963
  carovilli:
    province_id: IS
    code:        B810
    name:        Carovilli
    latitude:    41.71444
    longitude:   14.295618
  carpaneto_piacentino:
    province_id: PC
    code:        B812
    name:        'Carpaneto Piacentino'
    latitude:    44.91371
    longitude:   9.78884
  carpanzano:
    province_id: CS
    code:        B813
    name:        Carpanzano
    latitude:    39.148202
    longitude:   16.304031
  carpasio:
    province_id: IM
    code:        B814
    name:        Carpasio
    latitude:    43.960527
    longitude:   7.867122
  carpegna:
    province_id: PU
    code:        B816
    name:        Carpegna
    latitude:    43.783148
    longitude:   12.337667
  carpenedolo:
    province_id: BS
    code:        B817
    name:        Carpenedolo
    latitude:    45.363047
    longitude:   10.429952
  carpeneto:
    province_id: AL
    code:        B818
    name:        Carpeneto
    latitude:    44.678986
    longitude:   8.605388
  carpi:
    province_id: MO
    code:        B819
    name:        Carpi
    latitude:    44.783463
    longitude:   10.878759
  carpiano:
    province_id: MI
    code:        B820
    name:        Carpiano
    latitude:    45.341428
    longitude:   9.271338
  carpignano_salentino:
    province_id: LE
    code:        B822
    name:        'Carpignano Salentino'
    latitude:    40.197981
    longitude:   18.339241
  carpignano_sesia:
    province_id: NO
    code:        B823
    name:        'Carpignano Sesia'
    latitude:    45.535333
    longitude:   8.419537
  cura_carpignano:
    province_id: PV
    code:        B824
    name:        'Cura Carpignano'
    latitude:    45.213444
    longitude:   9.256722
  carpineti:
    province_id: RE
    code:        B825
    name:        Carpineti
    latitude:    44.457055
    longitude:   10.520796
  carpineto_sinello:
    province_id: CH
    code:        B826
    name:        'Carpineto Sinello'
    latitude:    42.010716
    longitude:   14.504298
  carpineto_della_nora:
    province_id: PE
    code:        B827
    name:        'Carpineto della Nora'
    latitude:    42.334074
    longitude:   13.861722
  carpineto_romano:
    province_id: RM
    code:        B828
    name:        'Carpineto Romano'
    latitude:    41.605481
    longitude:   13.086111
  carpino:
    province_id: FG
    code:        B829
    name:        Carpino
    latitude:    41.843122
    longitude:   15.857856
  carpinone:
    province_id: IS
    code:        B830
    name:        Carpinone
    latitude:    41.591407
    longitude:   14.324222
  carrara:
    province_id: MS
    code:        B832
    name:        Carrara
    latitude:    44.079337
    longitude:   10.101236
  carre:
    province_id: VI
    code:        B835
    name:        Carrè
    latitude:    45.74987
    longitude:   11.458926
  carrega_ligure:
    province_id: AL
    code:        B836
    name:        'Carrega Ligure'
    latitude:    44.61918
    longitude:   9.175846
  carro:
    province_id: SP
    code:        B838
    name:        Carro
    latitude:    44.27313
    longitude:   9.610018
  carrodano:
    province_id: SP
    code:        B839
    name:        Carrodano
    latitude:    44.242544
    longitude:   9.656858
  carrosio:
    province_id: AL
    code:        B840
    name:        Carrosio
    latitude:    44.659222
    longitude:   8.832667
  carru:
    province_id: CN
    code:        B841
    name:        Carrù
    latitude:    44.479565
    longitude:   7.877069
  carsoli:
    province_id: AQ
    code:        B842
    name:        Carsoli
    latitude:    42.099501
    longitude:   13.086941
  cartigliano:
    province_id: VI
    code:        B844
    name:        Cartigliano
    latitude:    45.713907
    longitude:   11.696741
  cartignano:
    province_id: CN
    code:        B845
    name:        Cartignano
    latitude:    44.478884
    longitude:   7.286134
  cartoceto:
    province_id: PU
    code:        B846
    name:        Cartoceto
    latitude:    43.767783
    longitude:   12.881764
  cartosio:
    province_id: AL
    code:        B847
    name:        Cartosio
    latitude:    44.591259
    longitude:   8.421722
  cartura:
    province_id: PD
    code:        B848
    name:        Cartura
    latitude:    45.269389
    longitude:   11.857815
  carugate:
    province_id: MI
    code:        B850
    name:        Carugate
    latitude:    45.550583
    longitude:   9.339651
  carugo:
    province_id: CO
    code:        B851
    name:        Carugo
    latitude:    45.709556
    longitude:   9.197981
  carunchio:
    province_id: CH
    code:        B853
    name:        Carunchio
    latitude:    41.918982
    longitude:   14.524976
  carvico:
    province_id: BG
    code:        B854
    name:        Carvico
    latitude:    45.70487
    longitude:   9.483463
  carzano:
    province_id: TN
    code:        B856
    name:        Carzano
    latitude:    46.070741
    longitude:   11.492748
  casabona:
    province_id: KR
    code:        B857
    name:        Casabona
    latitude:    39.251426
    longitude:   16.957352
  casacalenda:
    province_id: CB
    code:        B858
    name:        Casacalenda
    latitude:    41.73813
    longitude:   14.847667
  casacanditella:
    province_id: CH
    code:        B859
    name:        Casacanditella
    latitude:    42.248444
    longitude:   14.200333
  casagiove:
    province_id: CE
    code:        B860
    name:        Casagiove
    latitude:    41.075796
    longitude:   14.308778
  casalanguida:
    province_id: CH
    code:        B861
    name:        Casalanguida
    latitude:    42.036883
    longitude:   14.500022
  casalattico:
    province_id: FR
    code:        B862
    name:        Casalattico
    latitude:    41.622805
    longitude:   13.725937
  casalbeltrame:
    province_id: NO
    code:        B864
    name:        Casalbeltrame
    latitude:    45.438796
    longitude:   8.466272
  casalbordino:
    province_id: CH
    code:        B865
    name:        Casalbordino
    latitude:    42.150065
    longitude:   14.584455
  casalbore:
    province_id: AV
    code:        B866
    name:        Casalbore
    latitude:    41.235018
    longitude:   15.007667
  casalborgone:
    province_id: TO
    code:        B867
    name:        Casalborgone
    latitude:    45.13122
    longitude:   7.941392
  casalbuono:
    province_id: SA
    code:        B868
    name:        Casalbuono
    latitude:    40.215315
    longitude:   15.688926
  casalbuttano_ed_uniti:
    province_id: CR
    code:        B869
    name:        'Casalbuttano ed Uniti'
    latitude:    45.252815
    longitude:   9.962833
  casal_cermelli:
    province_id: AL
    code:        B870
    name:        'Casal Cermelli'
    latitude:    44.835238
    longitude:   8.625584
  casalciprano:
    province_id: CB
    code:        B871
    name:        Casalciprano
    latitude:    41.579915
    longitude:   14.52847
  casal_di_principe:
    province_id: CE
    code:        B872
    name:        'Casal di Principe'
    latitude:    41.012518
    longitude:   14.125796
  casalduni:
    province_id: BN
    code:        B873
    name:        Casalduni
    latitude:    41.259535
    longitude:   14.694862
  casale_litta:
    province_id: VA
    code:        B875
    name:        'Casale Litta'
    latitude:    45.768926
    longitude:   8.742518
  casale_corte_cerro:
    province_id: VB
    code:        B876
    name:        'Casale Corte Cerro'
    latitude:    45.916327
    longitude:   8.414145
  casale_di_scodosia:
    province_id: PD
    code:        B877
    name:        'Casale di Scodosia'
    latitude:    45.187056
    longitude:   11.469389
  casale_marittimo:
    province_id: PI
    code:        B878
    name:        'Casale Marittimo'
    latitude:    43.297701
    longitude:   10.615822
  casale_sul_sile:
    province_id: TV
    code:        B879
    name:        'Casale sul Sile'
    latitude:    45.598926
    longitude:   12.324389
  casalecchio_di_reno:
    province_id: BO
    code:        B880
    name:        'Casalecchio di Reno'
    latitude:    44.476574
    longitude:   11.277056
  casale_cremasco_vidolasco:
    province_id: CR
    code:        B881
    name:        'Casale Cremasco-Vidolasco'
    latitude:    45.432815
    longitude:   9.715333
  casaleggio_boiro:
    province_id: AL
    code:        B882
    name:        'Casaleggio Boiro'
    latitude:    44.634537
    longitude:   8.731574
  casaleggio_novara:
    province_id: NO
    code:        B883
    name:        'Casaleggio Novara'
    latitude:    45.48987
    longitude:   8.493148
  casale_monferrato:
    province_id: AL
    code:        B885
    name:        'Casale Monferrato'
    latitude:    45.137156
    longitude:   8.450886
  casaleone:
    province_id: VR
    code:        B886
    name:        Casaleone
    latitude:    45.173007
    longitude:   11.195315
  casaletto_lodigiano:
    province_id: LO
    code:        B887
    name:        'Casaletto Lodigiano'
    latitude:    45.30763
    longitude:   9.361661
  casaletto_spartano:
    province_id: SA
    code:        B888
    name:        'Casaletto Spartano'
    latitude:    40.151722
    longitude:   15.619537
  casaletto_ceredano:
    province_id: CR
    code:        B889
    name:        'Casaletto Ceredano'
    latitude:    45.318144
    longitude:   9.619162
  casaletto_di_sopra:
    province_id: CR
    code:        B890
    name:        'Casaletto di Sopra'
    latitude:    45.419894
    longitude:   9.782267
  casaletto_vaprio:
    province_id: CR
    code:        B891
    name:        'Casaletto Vaprio'
    latitude:    45.409241
    longitude:   9.629852
  casalfiumanese:
    province_id: BO
    code:        B892
    name:        Casalfiumanese
    latitude:    44.297815
    longitude:   11.625
  casalgrande:
    province_id: RE
    code:        B893
    name:        Casalgrande
    latitude:    44.58563
    longitude:   10.736574
  casalgrasso:
    province_id: CN
    code:        B894
    name:        Casalgrasso
    latitude:    44.818298
    longitude:   7.625974
  casal_velino:
    province_id: SA
    code:        B895
    name:        'Casal Velino'
    latitude:    40.189024
    longitude:   15.11022
  casalincontrada:
    province_id: CH
    code:        B896
    name:        Casalincontrada
    latitude:    42.29783
    longitude:   14.136019
  casalino:
    province_id: NO
    code:        B897
    name:        Casalino
    latitude:    45.359389
    longitude:   8.525
  casalmaggiore:
    province_id: CR
    code:        B898
    name:        Casalmaggiore
    latitude:    44.986017
    longitude:   10.415103
  casalmaiocco:
    province_id: LO
    code:        B899
    name:        Casalmaiocco
    latitude:    45.354852
    longitude:   9.375481
  casalmorano:
    province_id: CR
    code:        B900
    name:        Casalmorano
    latitude:    45.287352
    longitude:   9.900796
  casalmoro:
    province_id: MN
    code:        B901
    name:        Casalmoro
    latitude:    45.260648
    longitude:   10.405648
  casalnoceto:
    province_id: AL
    code:        B902
    name:        Casalnoceto
    latitude:    44.914074
    longitude:   8.983296
  villapiana:
    province_id: CS
    code:        B903
    name:        Villapiana
    latitude:    39.8475
    longitude:   16.456111
  casalnuovo_monterotaro:
    province_id: FG
    code:        B904
    name:        'Casalnuovo Monterotaro'
    latitude:    41.621151
    longitude:   15.104922
  casalnuovo_di_napoli:
    province_id: NA
    code:        B905
    name:        'Casalnuovo di Napoli'
    latitude:    40.910333
    longitude:   14.346741
  san_paolo_albanese:
    province_id: PZ
    code:        B906
    name:        'San Paolo Albanese'
    latitude:    40.034242
    longitude:   16.334623
  casaloldo:
    province_id: MN
    code:        B907
    name:        Casaloldo
    latitude:    45.255796
    longitude:   10.475481
  casalpusterlengo:
    province_id: LO
    code:        B910
    name:        Casalpusterlengo
    latitude:    45.177815
    longitude:   9.650167
  casalromano:
    province_id: MN
    code:        B911
    name:        Casalromano
    latitude:    45.200051
    longitude:   10.368407
  casalserugo:
    province_id: PD
    code:        B912
    name:        Casalserugo
    latitude:    45.317049
    longitude:   11.913298
  pozzaglio_ed_uniti:
    province_id: CR
    code:        B914
    name:        'Pozzaglio ed Uniti'
    latitude:    45.201259
    longitude:   10.051741
  trinitapoli:
    province_id: FG
    code:        B915
    name:        Trinitapoli
    latitude:    41.358296
    longitude:   16.088296
  casaluce:
    province_id: CE
    code:        B916
    name:        Casaluce
    latitude:    41.002981
    longitude:   14.198907
  casalvecchio_di_puglia:
    province_id: FG
    code:        B917
    name:        'Casalvecchio di Puglia'
    latitude:    41.594852
    longitude:   15.111407
  casalvecchio_siculo:
    province_id: ME
    code:        B918
    name:        'Casalvecchio Siculo'
    latitude:    37.959158
    longitude:   15.323145
  casalvieri:
    province_id: FR
    code:        B919
    name:        Casalvieri
    latitude:    41.632593
    longitude:   13.714912
  casalvolone:
    province_id: NO
    code:        B920
    name:        Casalvolone
    latitude:    45.401745
    longitude:   8.464533
  casalzuigno:
    province_id: VA
    code:        B921
    name:        Casalzuigno
    latitude:    45.90374
    longitude:   8.701674
  casamarciano:
    province_id: NA
    code:        B922
    name:        Casamarciano
    latitude:    40.932981
    longitude:   14.554241
  casamassima:
    province_id: BA
    code:        B923
    name:        Casamassima
    latitude:    40.955308
    longitude:   16.918135
  casamicciola_terme:
    province_id: NA
    code:        B924
    name:        'Casamicciola Terme'
    latitude:    40.747667
    longitude:   13.912981
  casandrino:
    province_id: NA
    code:        B925
    name:        Casandrino
    latitude:    40.930781
    longitude:   14.247883
  casanova_lerrone:
    province_id: SV
    code:        B927
    name:        'Casanova Lerrone'
    latitude:    44.031552
    longitude:   8.048226
  casanova_elvo:
    province_id: VC
    code:        B928
    name:        'Casanova Elvo'
    latitude:    45.402055
    longitude:   8.294704
  casanova_lonati:
    province_id: PV
    code:        B929
    name:        'Casanova Lonati'
    latitude:    45.095481
    longitude:   9.214537
  casape:
    province_id: RM
    code:        B932
    name:        Casape
    latitude:    41.908299
    longitude:   12.885873
  casapinta:
    province_id: BI
    code:        B933
    name:        Casapinta
    latitude:    45.616741
    longitude:   8.197037
  casaprota:
    province_id: RI
    code:        B934
    name:        Casaprota
    latitude:    42.251146
    longitude:   12.803523
  casapulla:
    province_id: CE
    code:        B935
    name:        Casapulla
    latitude:    41.074981
    longitude:   14.288704
  casarano:
    province_id: LE
    code:        B936
    name:        Casarano
    latitude:    40.01262
    longitude:   18.160586
  casargo:
    province_id: LC
    code:        B937
    name:        Casargo
    latitude:    46.037518
    longitude:   9.386407
  casarile:
    province_id: MI
    code:        B938
    name:        Casarile
    latitude:    45.317064
    longitude:   9.106017
  casarza_ligure:
    province_id: GE
    code:        B939
    name:        'Casarza Ligure'
    latitude:    44.272144
    longitude:   9.445681
  casarsa_della_delizia:
    province_id: PN
    code:        B940
    name:        'Casarsa della Delizia'
    latitude:    45.957231
    longitude:   12.842501
  casasco:
    province_id: AL
    code:        B941
    name:        Casasco
    latitude:    44.82889
    longitude:   9.006027
  casasco_d_intelvi:
    province_id: CO
    code:        B942
    name:        'Casasco d''Intelvi'
    latitude:    45.944704
    longitude:   9.076889
  casatenovo:
    province_id: LC
    code:        B943
    name:        Casatenovo
    latitude:    45.697062
    longitude:   9.312272
  casatisma:
    province_id: PV
    code:        B945
    name:        Casatisma
    latitude:    45.05
    longitude:   9.133148
  casavatore:
    province_id: NA
    code:        B946
    name:        Casavatore
    latitude:    40.900333
    longitude:   14.2775
  casazza:
    province_id: BG
    code:        B947
    name:        Casazza
    latitude:    45.75004
    longitude:   9.909933
  cascia:
    province_id: PG
    code:        B948
    name:        Cascia
    latitude:    42.717632
    longitude:   13.015555
  casciago:
    province_id: VA
    code:        B949
    name:        Casciago
    latitude:    45.834616
    longitude:   8.782284
  cascina:
    province_id: PI
    code:        B950
    name:        Cascina
    latitude:    43.676627
    longitude:   10.546802
  san_giacomo_vercellese:
    province_id: VC
    code:        B952
    name:        'San Giacomo Vercellese'
    latitude:    45.499241
    longitude:   8.327815
  cascinette_d_ivrea:
    province_id: TO
    code:        B953
    name:        'Cascinette D''Ivrea'
    latitude:    45.481278
    longitude:   7.906722
  casei_gerola:
    province_id: PV
    code:        B954
    name:        'Casei Gerola'
    latitude:    45.008611
    longitude:   8.927815
  caselette:
    province_id: TO
    code:        B955
    name:        Caselette
    latitude:    45.105796
    longitude:   7.482056
  casella:
    province_id: GE
    code:        B956
    name:        Casella
    latitude:    44.536111
    longitude:   8.999074
  caselle_lurani:
    province_id: LO
    code:        B958
    name:        'Caselle Lurani'
    latitude:    45.281574
    longitude:   9.360648
  caselle_in_pittari:
    province_id: SA
    code:        B959
    name:        'Caselle in Pittari'
    latitude:    40.17333
    longitude:   15.546798
  caselle_torinese:
    province_id: TO
    code:        B960
    name:        'Caselle Torinese'
    latitude:    45.177365
    longitude:   7.647452
  caselle_landi:
    province_id: LO
    code:        B961
    name:        'Caselle Landi'
    latitude:    45.102247
    longitude:   9.792969
  scandicci:
    province_id: FI
    code:        B962
    name:        Scandicci
    latitude:    43.753486
    longitude:   11.18916
  caserta:
    province_id: CE
    code:        B963
    name:        Caserta
    latitude:    41.075415
    longitude:   14.332195
  casier:
    province_id: TV
    code:        B965
    name:        Casier
    latitude:    45.64388
    longitude:   12.295763
  casignana:
    province_id: RC
    code:        B966
    name:        Casignana
    latitude:    38.102463
    longitude:   16.091114
  casina:
    province_id: RE
    code:        B967
    name:        Casina
    latitude:    43.339927
    longitude:   11.930031
  castelsilano:
    province_id: KR
    code:        B968
    name:        Castelsilano
    latitude:    39.271414
    longitude:   16.768931
  castel_di_casio:
    province_id: BO
    code:        B969
    name:        'Castel di Casio'
    latitude:    44.163907
    longitude:   11.036889
  casirate_d_adda:
    province_id: BG
    code:        B971
    name:        'Casirate d''Adda'
    latitude:    45.497833
    longitude:   9.567352
  caslino_d_erba:
    province_id: CO
    code:        B974
    name:        'Caslino d''Erba'
    latitude:    45.839704
    longitude:   9.2325
  casnate_con_bernate:
    province_id: CO
    code:        B977
    name:        'Casnate con Bernate'
    latitude:    45.762179
    longitude:   9.075522
  casnigo:
    province_id: BG
    code:        B978
    name:        Casnigo
    latitude:    45.815009
    longitude:   9.867569
  casola_in_lunigiana:
    province_id: MS
    code:        B979
    name:        'Casola in Lunigiana'
    latitude:    44.201407
    longitude:   10.177815
  casola_di_napoli:
    province_id: NA
    code:        B980
    name:        'Casola di Napoli'
    latitude:    40.697981
    longitude:   14.528611
  casola_valsenio:
    province_id: RA
    code:        B982
    name:        'Casola Valsenio'
    latitude:    44.223215
    longitude:   11.622418
  casole_bruzio:
    province_id: CS
    code:        B983
    name:        'Casole Bruzio'
    latitude:    39.285481
    longitude:   16.337352
  casole_d_elsa:
    province_id: SI
    code:        B984
    name:        'Casole D''Elsa'
    latitude:    43.340785
    longitude:   11.043816
  casoli:
    province_id: CH
    code:        B985
    name:        Casoli
    latitude:    42.117978
    longitude:   14.292004
  casorate_sempione:
    province_id: VA
    code:        B987
    name:        'Casorate Sempione'
    latitude:    45.672056
    longitude:   8.744537
  casorate_primo:
    province_id: PV
    code:        B988
    name:        'Casorate Primo'
    latitude:    45.313463
    longitude:   9.017981
  casorezzo:
    province_id: MI
    code:        B989
    name:        Casorezzo
    latitude:    45.523797
    longitude:   8.901375
  casoria:
    province_id: NA
    code:        B990
    name:        Casoria
    latitude:    40.905446
    longitude:   14.290074
  casorzo:
    province_id: AT
    code:        B991
    name:        Casorzo
    latitude:    45.023444
    longitude:   8.33813
  caspoggio:
    province_id: SO
    code:        B993
    name:        Caspoggio
    latitude:    46.264549
    longitude:   9.863902
  cassacco:
    province_id: UD
    code:        B994
    name:        Cassacco
    latitude:    46.178778
    longitude:   13.200648
  cassago_brianza:
    province_id: LC
    code:        B996
    name:        'Cassago Brianza'
    latitude:    45.739074
    longitude:   9.294537
  cassano_irpino:
    province_id: AV
    code:        B997
    name:        'Cassano Irpino'
    latitude:    40.871407
    longitude:   15.026889
  cassano_delle_murge:
    province_id: BA
    code:        B998
    name:        'Cassano delle Murge'
    latitude:    40.891033
    longitude:   16.770317
  cassano_valcuvia:
    province_id: VA
    code:        B999
    name:        'Cassano Valcuvia'
    latitude:    45.933463
    longitude:   8.769537
  cassano_allo_ionio:
    province_id: CS
    code:        C002
    name:        'Cassano allo Ionio'
    latitude:    39.785354
    longitude:   16.318285
  cassano_d_adda:
    province_id: MI
    code:        C003
    name:        'Cassano D''Adda'
    latitude:    45.52606
    longitude:   9.516771
  cassano_magnago:
    province_id: VA
    code:        C004
    name:        'Cassano Magnago'
    latitude:    45.670711
    longitude:   8.820677
  cassano_spinola:
    province_id: AL
    code:        C005
    name:        'Cassano Spinola'
    latitude:    44.763355
    longitude:   8.861468
  cassaro:
    province_id: SR
    code:        C006
    name:        Cassaro
    latitude:    37.106228
    longitude:   14.948219
  cassiglio:
    province_id: BG
    code:        C007
    name:        Cassiglio
    latitude:    45.967318
    longitude:   9.613978
  pero:
    province_id: MI
    code:        C013
    name:        Pero
    latitude:    45.508986
    longitude:   9.086639
  cassina_de_pecchi:
    province_id: MI
    code:        C014
    name:        'Cassina de'' Pecchi'
    latitude:    45.519764
    longitude:   9.365531
  cassina_rizzardi:
    province_id: CO
    code:        C020
    name:        'Cassina Rizzardi'
    latitude:    45.752583
    longitude:   9.025628
  cassinasco:
    province_id: AT
    code:        C022
    name:        Cassinasco
    latitude:    44.689463
    longitude:   8.301832
  cassina_valsassina:
    province_id: LC
    code:        C024
    name:        'Cassina Valsassina'
    latitude:    45.933148
    longitude:   9.48
  cassine:
    province_id: AL
    code:        C027
    name:        Cassine
    latitude:    44.750944
    longitude:   8.528907
  cassinelle:
    province_id: AL
    code:        C030
    name:        Cassinelle
    latitude:    44.6025
    longitude:   8.564537
  cassinetta_di_lugagnano:
    province_id: MI
    code:        C033
    name:        'Cassinetta di Lugagnano'
    latitude:    45.425803
    longitude:   8.90978
  cassino:
    province_id: FR
    code:        C034
    name:        Cassino
    latitude:    41.492901
    longitude:   13.830566
  cassola:
    province_id: VI
    code:        C037
    name:        Cassola
    latitude:    45.732665
    longitude:   11.796291
  cassolnovo:
    province_id: PV
    code:        C038
    name:        Cassolnovo
    latitude:    45.362414
    longitude:   8.809404
  castel_castagna:
    province_id: TE
    code:        C040
    name:        'Castel Castagna'
    latitude:    42.543907
    longitude:   13.717352
  castagnaro:
    province_id: VR
    code:        C041
    name:        Castagnaro
    latitude:    45.120436
    longitude:   11.410938
  castagneto_carducci:
    province_id: LI
    code:        C044
    name:        'Castagneto Carducci'
    latitude:    43.159725
    longitude:   10.610966
  castagneto_po:
    province_id: TO
    code:        C045
    name:        'Castagneto Po'
    latitude:    45.160333
    longitude:   7.890648
  castagnito:
    province_id: CN
    code:        C046
    name:        Castagnito
    latitude:    44.756407
    longitude:   8.032518
  castagnole_monferrato:
    province_id: AT
    code:        C047
    name:        'Castagnole Monferrato'
    latitude:    44.959956
    longitude:   8.304802
  castagnole_piemonte:
    province_id: TO
    code:        C048
    name:        'Castagnole Piemonte'
    latitude:    44.899241
    longitude:   7.56737
  castagnole_delle_lanze:
    province_id: AT
    code:        C049
    name:        'Castagnole delle Lanze'
    latitude:    44.752204
    longitude:   8.151426
  castana:
    province_id: PV
    code:        C050
    name:        Castana
    latitude:    45.027235
    longitude:   9.27191
  castell_umberto:
    province_id: ME
    code:        C051
    name:        'Castell''Umberto'
    latitude:    38.084882
    longitude:   14.806704
  castano_primo:
    province_id: MI
    code:        C052
    name:        'Castano Primo'
    latitude:    45.553095
    longitude:   8.782756
  casteggio:
    province_id: PV
    code:        C053
    name:        Casteggio
    latitude:    45.011111
    longitude:   9.123444
  castegnato:
    province_id: BS
    code:        C055
    name:        Castegnato
    latitude:    45.561278
    longitude:   10.115
  castegnero:
    province_id: VI
    code:        C056
    name:        Castegnero
    latitude:    45.43768
    longitude:   11.601118
  castelbaldo:
    province_id: PD
    code:        C057
    name:        Castelbaldo
    latitude:    45.123386
    longitude:   11.459217
  castel_baronia:
    province_id: AV
    code:        C058
    name:        'Castel Baronia'
    latitude:    41.048444
    longitude:   15.189704
  castelbelforte:
    province_id: MN
    code:        C059
    name:        Castelbelforte
    latitude:    45.213148
    longitude:   10.893611
  castelbellino:
    province_id: AN
    code:        C060
    name:        Castelbellino
    latitude:    43.487833
    longitude:   13.14563
  castelbello_ciardes:
    province_id: BZ
    code:        C062
    name:        'Castelbello Ciardes'
    latitude:    46.628362
    longitude:   10.901084
  castelbianco:
    province_id: SV
    code:        C063
    name:        Castelbianco
    latitude:    44.113682
    longitude:   8.074881
  castel_boglione:
    province_id: AT
    code:        C064
    name:        'Castel Boglione'
    latitude:    44.722981
    longitude:   8.381111
  castel_bolognese:
    province_id: RA
    code:        C065
    name:        'Castel Bolognese'
    latitude:    44.318897
    longitude:   11.801407
  castelbottaccio:
    province_id: CB
    code:        C066
    name:        Castelbottaccio
    latitude:    41.754503
    longitude:   14.708773
  castelbuono:
    province_id: PA
    code:        C067
    name:        Castelbuono
    latitude:    37.932498
    longitude:   14.087338
  castelcivita:
    province_id: SA
    code:        C069
    name:        Castelcivita
    latitude:    40.494467
    longitude:   15.232979
  servigliano:
    province_id: AP
    code:        C070
    name:        Servigliano
    latitude:    43.081574
    longitude:   13.493148
  castel_colonna:
    province_id: AN
    code:        C071
    name:        'Castel Colonna'
    latitude:    43.67964
    longitude:   13.105652
  castelcovati:
    province_id: BS
    code:        C072
    name:        Castelcovati
    latitude:    45.502612
    longitude:   9.946878
  castelcucco:
    province_id: TV
    code:        C073
    name:        Castelcucco
    latitude:    45.831741
    longitude:   11.885333
  casteldaccia:
    province_id: PA
    code:        C074
    name:        Casteldaccia
    latitude:    38.053778
    longitude:   13.529537
  castel_d_aiano:
    province_id: BO
    code:        C075
    name:        'Castel D''Aiano'
    latitude:    44.276889
    longitude:   11.000481
  castel_d_ario:
    province_id: MN
    code:        C076
    name:        'Castel d''Ario'
    latitude:    45.188907
    longitude:   10.975648
  castel_d_azzano:
    province_id: VR
    code:        C078
    name:        'Castel D''Azzano'
    latitude:    45.356889
    longitude:   10.954074
  castelli_calepio:
    province_id: BG
    code:        C079
    name:        'Castelli Calepio'
    latitude:    45.638981
    longitude:   9.903907
  casteldelci:
    province_id: PU
    code:        C080
    name:        Casteldelci
    latitude:    43.791577
    longitude:   12.155043
  casteldelfino:
    province_id: CN
    code:        C081
    name:        Casteldelfino
    latitude:    44.59063
    longitude:   7.070944
  castel_del_giudice:
    province_id: IS
    code:        C082
    name:        'Castel del Giudice'
    latitude:    41.855648
    longitude:   14.232037
  castel_del_monte:
    province_id: AQ
    code:        C083
    name:        'Castel del Monte'
    latitude:    42.364519
    longitude:   13.725791
  castel_del_piano:
    province_id: GR
    code:        C085
    name:        'Castel del Piano'
    latitude:    42.891111
    longitude:   11.539537
  castel_del_rio:
    province_id: BO
    code:        C086
    name:        'Castel del Rio'
    latitude:    44.215984
    longitude:   11.503752
  casteldidone:
    province_id: CR
    code:        C089
    name:        Casteldidone
    latitude:    45.070481
    longitude:   10.407352
  castel_di_ieri:
    province_id: AQ
    code:        C090
    name:        'Castel di Ieri'
    latitude:    42.115614
    longitude:   13.742733
  castel_di_iudica:
    province_id: CT
    code:        C091
    name:        'Castel di Iudica'
    latitude:    37.494686
    longitude:   14.646886
  castel_di_lama:
    province_id: AP
    code:        C093
    name:        'Castel di Lama'
    latitude:    42.87059
    longitude:   13.713649
  castel_di_lucio:
    province_id: ME
    code:        C094
    name:        'Castel di Lucio'
    latitude:    37.8875
    longitude:   14.313148
  castel_di_sangro:
    province_id: AQ
    code:        C096
    name:        'Castel di Sangro'
    latitude:    41.784336
    longitude:   14.108263
  castel_di_sasso:
    province_id: CE
    code:        C097
    name:        'Castel di Sasso'
    latitude:    41.192645
    longitude:   14.277962
  castel_di_tora:
    province_id: RI
    code:        C098
    name:        'Castel di Tora'
    latitude:    42.21583
    longitude:   12.963765
  castelfidardo:
    province_id: AN
    code:        C100
    name:        Castelfidardo
    latitude:    43.464501
    longitude:   13.546588
  castelfiorentino:
    province_id: FI
    code:        C101
    name:        Castelfiorentino
    latitude:    43.610994
    longitude:   10.969047
  castel_focognano:
    province_id: AR
    code:        C102
    name:        'Castel Focognano'
    latitude:    43.653711
    longitude:   11.78888
  castelfondo:
    province_id: TN
    code:        C103
    name:        Castelfondo
    latitude:    46.456628
    longitude:   11.118391
  castelforte:
    province_id: LT
    code:        C104
    name:        Castelforte
    latitude:    41.301556
    longitude:   13.819572
  castelfranci:
    province_id: AV
    code:        C105
    name:        Castelfranci
    latitude:    40.932352
    longitude:   15.044241
  castelfranco_in_miscano:
    province_id: BN
    code:        C106
    name:        'Castelfranco in Miscano'
    latitude:    41.299704
    longitude:   15.084555
  castelfranco_emilia:
    province_id: MO
    code:        C107
    name:        'Castelfranco Emilia'
    latitude:    44.596722
    longitude:   11.053148
  castrolibero:
    province_id: CS
    code:        C108
    name:        Castrolibero
    latitude:    39.308651
    longitude:   16.194501
  castel_vittorio:
    province_id: IM
    code:        C110
    name:        'Castel Vittorio'
    latitude:    43.928808
    longitude:   7.675156
  castelfranco_veneto:
    province_id: TV
    code:        C111
    name:        'Castelfranco Veneto'
    latitude:    45.671317
    longitude:   11.926227
  castelfranco_di_sopra:
    province_id: AR
    code:        C112
    name:        'Castelfranco di Sopra'
    latitude:    43.62112
    longitude:   11.557053
  castelfranco_di_sotto:
    province_id: PI
    code:        C113
    name:        'Castelfranco di Sotto'
    latitude:    43.698988
    longitude:   10.742423
  castel_frentano:
    province_id: CH
    code:        C114
    name:        'Castel Frentano'
    latitude:    42.19813
    longitude:   14.356278
  castel_gabbiano:
    province_id: CR
    code:        C115
    name:        'Castel Gabbiano'
    latitude:    45.469323
    longitude:   9.716415
  castel_gandolfo:
    province_id: RM
    code:        C116
    name:        'Castel Gandolfo'
    latitude:    41.749952
    longitude:   12.648516
  castel_giorgio:
    province_id: TR
    code:        C117
    name:        'Castel Giorgio'
    latitude:    42.706574
    longitude:   11.977352
  castel_goffredo:
    province_id: MN
    code:        C118
    name:        'Castel Goffredo'
    latitude:    45.297461
    longitude:   10.47862
  castelgomberto:
    province_id: VI
    code:        C119
    name:        Castelgomberto
    latitude:    45.585963
    longitude:   11.396722
  castelgrande:
    province_id: PZ
    code:        C120
    name:        Castelgrande
    latitude:    40.785712
    longitude:   15.429658
  castel_guelfo_di_bologna:
    province_id: BO
    code:        C121
    name:        'Castel Guelfo di Bologna'
    latitude:    44.431741
    longitude:   11.678926
  castelguglielmo:
    province_id: RO
    code:        C122
    name:        Castelguglielmo
    latitude:    45.025796
    longitude:   11.537667
  castelguidone:
    province_id: CH
    code:        C123
    name:        Castelguidone
    latitude:    41.823778
    longitude:   14.522815
  castellabate:
    province_id: SA
    code:        C125
    name:        Castellabate
    latitude:    40.282583
    longitude:   14.957446
  castellafiume:
    province_id: AQ
    code:        C126
    name:        Castellafiume
    latitude:    41.98938
    longitude:   13.334321
  castell_alfero:
    province_id: AT
    code:        C127
    name:        'Castell''Alfero'
    latitude:    44.982373
    longitude:   8.210162
  castellalto:
    province_id: TE
    code:        C128
    name:        Castellalto
    latitude:    42.678683
    longitude:   13.82322
  castellammare_di_stabia:
    province_id: NA
    code:        C129
    name:        'Castellammare di Stabia'
    latitude:    40.696002
    longitude:   14.481674
  castellammare_del_golfo:
    province_id: TP
    code:        C130
    name:        'Castellammare del Golfo'
    latitude:    38.020018
    longitude:   12.886722
  castellamonte:
    province_id: TO
    code:        C133
    name:        Castellamonte
    latitude:    45.382981
    longitude:   7.713296
  castellana_grotte:
    province_id: BA
    code:        C134
    name:        'Castellana Grotte'
    latitude:    40.887518
    longitude:   17.166426
  castellana_sicula:
    province_id: PA
    code:        C135
    name:        'Castellana Sicula'
    latitude:    37.781902
    longitude:   14.042972
  castellaneta:
    province_id: TA
    code:        C136
    name:        Castellaneta
    latitude:    40.628296
    longitude:   16.937833
  castellania:
    province_id: AL
    code:        C137
    name:        Castellania
    latitude:    44.798425
    longitude:   8.929796
  castellanza:
    province_id: VA
    code:        C139
    name:        Castellanza
    latitude:    45.611946
    longitude:   8.898276
  castellar:
    province_id: CN
    code:        C140
    name:        Castellar
    latitude:    44.621699
    longitude:   7.437344
  castellarano:
    province_id: RE
    code:        C141
    name:        Castellarano
    latitude:    44.511548
    longitude:   10.730658
  castellar_guidobono:
    province_id: AL
    code:        C142
    name:        'Castellar Guidobono'
    latitude:    44.905977
    longitude:   8.947144
  castellaro:
    province_id: IM
    code:        C143
    name:        Castellaro
    latitude:    43.866259
    longitude:   7.869852
  castell_arquato:
    province_id: PC
    code:        C145
    name:        'Castell''Arquato'
    latitude:    44.853665
    longitude:   9.870782
  castellavazzo:
    province_id: BL
    code:        C146
    name:        Castellavazzo
    latitude:    46.285963
    longitude:   12.308148
  castell_azzara:
    province_id: GR
    code:        C147
    name:        'Castell''Azzara'
    latitude:    42.772846
    longitude:   11.698326
  castellazzo_bormida:
    province_id: AL
    code:        C148
    name:        'Castellazzo Bormida'
    latitude:    44.846111
    longitude:   8.578463
  castellazzo_novarese:
    province_id: NO
    code:        C149
    name:        'Castellazzo Novarese'
    latitude:    45.514389
    longitude:   8.488148
  castelleone_di_suasa:
    province_id: AN
    code:        C152
    name:        'Castelleone di Suasa'
    latitude:    43.608458
    longitude:   12.977013
  castelleone:
    province_id: CR
    code:        C153
    name:        Castelleone
    latitude:    45.294852
    longitude:   9.762833
  castellero:
    province_id: AT
    code:        C154
    name:        Castellero
    latitude:    44.92567
    longitude:   8.07434
  castelletto_cervo:
    province_id: BI
    code:        C155
    name:        'Castelletto Cervo'
    latitude:    45.520626
    longitude:   8.224836
  castelletto_d_erro:
    province_id: AL
    code:        C156
    name:        'Castelletto D''Erro'
    latitude:    44.62737
    longitude:   8.39487
  castelletto_di_branduzzo:
    province_id: PV
    code:        C157
    name:        'Castelletto di Branduzzo'
    latitude:    45.070377
    longitude:   9.098896
  castelletto_d_orba:
    province_id: AL
    code:        C158
    name:        'Castelletto D''Orba'
    latitude:    44.685569
    longitude:   8.704521
  castelletto_merli:
    province_id: AL
    code:        C160
    name:        'Castelletto Merli'
    latitude:    45.074836
    longitude:   8.241286
  castelletto_molina:
    province_id: AT
    code:        C161
    name:        'Castelletto Molina'
    latitude:    44.751044
    longitude:   8.432453
  castelletto_monferrato:
    province_id: AL
    code:        C162
    name:        'Castelletto Monferrato'
    latitude:    44.982204
    longitude:   8.56563
  castelletto_stura:
    province_id: CN
    code:        C165
    name:        'Castelletto Stura'
    latitude:    44.444852
    longitude:   7.640315
  castelletto_sopra_ticino:
    province_id: NO
    code:        C166
    name:        'Castelletto Sopra Ticino'
    latitude:    45.718707
    longitude:   8.636846
  castelletto_uzzone:
    province_id: CN
    code:        C167
    name:        'Castelletto Uzzone'
    latitude:    44.499037
    longitude:   8.18788
  castelli:
    province_id: TE
    code:        C169
    name:        Castelli
    latitude:    42.489102
    longitude:   13.711786
  castellina_in_chianti:
    province_id: SI
    code:        C172
    name:        'Castellina in Chianti'
    latitude:    43.471432
    longitude:   11.285394
  castellinaldo:
    province_id: CN
    code:        C173
    name:        Castellinaldo
    latitude:    44.775963
    longitude:   8.030963
  castellina_marittima:
    province_id: PI
    code:        C174
    name:        'Castellina Marittima'
    latitude:    43.412662
    longitude:   10.576511
  castellino_del_biferno:
    province_id: CB
    code:        C175
    name:        'Castellino del Biferno'
    latitude:    41.702667
    longitude:   14.732037
  castellino_tanaro:
    province_id: CN
    code:        C176
    name:        'Castellino Tanaro'
    latitude:    44.428108
    longitude:   7.981292
  castelliri:
    province_id: FR
    code:        C177
    name:        Castelliri
    latitude:    41.67934
    longitude:   13.551501
  castello_del_matese:
    province_id: CE
    code:        C178
    name:        'Castello del Matese'
    latitude:    41.36793
    longitude:   14.377666
  castelveccana:
    province_id: VA
    code:        C181
    name:        Castelveccana
    latitude:    45.949521
    longitude:   8.669477
  castel_condino:
    province_id: TN
    code:        C183
    name:        'Castel Condino'
    latitude:    45.916149
    longitude:   10.602593
  castello_d_agogna:
    province_id: PV
    code:        C184
    name:        'Castello D''Agogna'
    latitude:    45.232801
    longitude:   8.689737
  castello_d_argile:
    province_id: BO
    code:        C185
    name:        'Castello D''Argile'
    latitude:    44.68
    longitude:   11.297055
  castello_dell_acqua:
    province_id: SO
    code:        C186
    name:        'Castello dell''Acqua'
    latitude:    46.145895
    longitude:   10.014435
  castello_di_brianza:
    province_id: LC
    code:        C187
    name:        'Castello di Brianza'
    latitude:    45.759477
    longitude:   9.344768
  castello_di_cisterna:
    province_id: NA
    code:        C188
    name:        'Castello di Cisterna'
    latitude:    40.915183
    longitude:   14.408435
  castello_molina_di_fiemme:
    province_id: TN
    code:        C189
    name:        'Castello-Molina di Fiemme'
    latitude:    46.281883
    longitude:   11.435125
  castello_di_godego:
    province_id: TV
    code:        C190
    name:        'Castello di Godego'
    latitude:    45.694389
    longitude:   11.877981
  castello_di_serravalle:
    province_id: BO
    code:        C191
    name:        'Castello di Serravalle'
    latitude:    44.437866
    longitude:   11.031391
  castello_tesino:
    province_id: TN
    code:        C194
    name:        'Castello Tesino'
    latitude:    46.064556
    longitude:   11.633444
  castellucchio:
    province_id: MN
    code:        C195
    name:        Castellucchio
    latitude:    45.152854
    longitude:   10.650922
  castelmauro:
    province_id: CB
    code:        C197
    name:        Castelmauro
    latitude:    41.82918
    longitude:   14.710039
  castelluccio_dei_sauri:
    province_id: FG
    code:        C198
    name:        'Castelluccio dei Sauri'
    latitude:    41.304743
    longitude:   15.477774
  castelluccio_inferiore:
    province_id: PZ
    code:        C199
    name:        'Castelluccio Inferiore'
    latitude:    40.004758
    longitude:   15.980786
  castelverrino:
    province_id: IS
    code:        C200
    name:        Castelverrino
    latitude:    41.766696
    longitude:   14.397706
  castelluccio_superiore:
    province_id: PZ
    code:        C201
    name:        'Castelluccio Superiore'
    latitude:    40.011426
    longitude:   15.975944
  castelluccio_valmaggiore:
    province_id: FG
    code:        C202
    name:        'Castelluccio Valmaggiore'
    latitude:    41.342872
    longitude:   15.20086
  castel_madama:
    province_id: RM
    code:        C203
    name:        'Castel Madama'
    latitude:    41.974537
    longitude:   12.869555
  castel_maggiore:
    province_id: BO
    code:        C204
    name:        'Castel Maggiore'
    latitude:    44.578148
    longitude:   11.361722
  castelmagno:
    province_id: CN
    code:        C205
    name:        Castelmagno
