City:
  pabillonis:
    province_id: VS
    id:          G207
    name:        Pabillonis
    latitude:    39.59237
    longitude:   8.721722
  paceco:
    province_id: TP
    id:          G208
    name:        Paceco
    latitude:    37.979852
    longitude:   12.5575
  pace_del_mela:
    province_id: ME
    id:          G209
    name:        'Pace del Mela'
    latitude:    38.181121
    longitude:   15.306983
  pacentro:
    province_id: AQ
    id:          G210
    name:        Pacentro
    latitude:    42.051807
    longitude:   13.992395
  pachino:
    province_id: SR
    id:          G211
    name:        Pachino
    latitude:    36.715837
    longitude:   15.089794
  paciano:
    province_id: PG
    id:          G212
    name:        Paciano
    latitude:    43.023234
    longitude:   12.069361
  padenghe_sul_garda:
    province_id: BS
    id:          G213
    name:        'Padenghe sul Garda'
    latitude:    45.510648
    longitude:   10.507518
  padergnone:
    province_id: TN
    id:          G214
    name:        Padergnone
    latitude:    46.063148
    longitude:   10.990018
  paderna:
    province_id: AL
    id:          G215
    name:        Paderna
    latitude:    44.821574
    longitude:   8.892352
  paderno_franciacorta:
    province_id: BS
    id:          G217
    name:        'Paderno Franciacorta'
    latitude:    45.587058
    longitude:   10.079001
  paderno_d_adda:
    province_id: LC
    id:          G218
    name:        'Paderno D''Adda'
    latitude:    45.680963
    longitude:   9.446259
  paderno_dugnano:
    province_id: MI
    id:          G220
    name:        'Paderno Dugnano'
    latitude:    45.567427
    longitude:   9.159549
  paderno_del_grappa:
    province_id: TV
    id:          G221
    name:        'Paderno del Grappa'
    latitude:    45.829403
    longitude:   11.859642
  paderno_ponchielli:
    province_id: CR
    id:          G222
    name:        'Paderno Ponchielli'
    latitude:    45.239601
    longitude:   9.930331
  robbiate:
    province_id: LC
    id:          G223
    name:        Robbiate
    latitude:    45.692518
    longitude:   9.437981
  padova:
    province_id: PD
    id:          G224
    name:        Padova
    latitude:    45.409568
    longitude:   11.876589
  padria:
    province_id: SS
    id:          G225
    name:        Padria
    latitude:    40.397518
    longitude:   8.630944
  padula:
    province_id: SA
    id:          G226
    name:        Padula
    latitude:    40.337981
    longitude:   15.655944
  paduli:
    province_id: BN
    id:          G227
    name:        Paduli
    latitude:    41.165169
    longitude:   14.88107
  paesana:
    province_id: CN
    id:          G228
    name:        Paesana
    latitude:    44.686262
    longitude:   7.275881
  paese:
    province_id: TV
    id:          G229
    name:        Paese
    latitude:    45.677625
    longitude:   12.156391
  pagani:
    province_id: SA
    id:          G230
    name:        Pagani
    latitude:    40.747328
    longitude:   14.61464
  paganico_sabino:
    province_id: RI
    id:          G232
    name:        'Paganico Sabino'
    latitude:    42.189954
    longitude:   12.997839
  pagazzano:
    province_id: BG
    id:          G233
    name:        Pagazzano
    latitude:    45.535333
    longitude:   9.67237
  pagliara:
    province_id: ME
    id:          G234
    name:        Pagliara
    latitude:    37.986574
    longitude:   15.360648
  paglieta:
    province_id: CH
    id:          G237
    name:        Paglieta
    latitude:    42.164074
    longitude:   14.498296
  pagnacco:
    province_id: UD
    id:          G238
    name:        Pagnacco
    latitude:    46.125583
    longitude:   13.189388
  pagno:
    province_id: CN
    id:          G240
    name:        Pagno
    latitude:    44.612833
    longitude:   7.426889
  pagnona:
    province_id: LC
    id:          G241
    name:        Pagnona
    latitude:    46.06063
    longitude:   9.403926
  pago_del_vallo_di_lauro:
    province_id: AV
    id:          G242
    name:        'Pago del Vallo di Lauro'
    latitude:    40.896278
    longitude:   14.605698
  pago_veiano:
    province_id: BN
    id:          G243
    name:        'Pago Veiano'
    latitude:    41.248907
    longitude:   14.87237
  paisco_loveno:
    province_id: BS
    id:          G247
    name:        'Paisco Loveno'
    latitude:    46.078632
    longitude:   10.292497
  paitone:
    province_id: BS
    id:          G248
    name:        Paitone
    latitude:    45.551889
    longitude:   10.402803
  paladina:
    province_id: BG
    id:          G249
    name:        Paladina
    latitude:    45.73175
    longitude:   9.607078
  palagano:
    province_id: MO
    id:          G250
    name:        Palagano
    latitude:    44.322056
    longitude:   10.647204
  palagianello:
    province_id: TA
    id:          G251
    name:        Palagianello
    latitude:    40.610598
    longitude:   16.974323
  palagiano:
    province_id: TA
    id:          G252
    name:        Palagiano
    latitude:    40.579222
    longitude:   17.038296
  palagonia:
    province_id: CT
    id:          G253
    name:        Palagonia
    latitude:    37.329441
    longitude:   14.745689
  palaia:
    province_id: PI
    id:          G254
    name:        Palaia
    latitude:    43.605182
    longitude:   10.774345
  palanzano:
    province_id: PR
    id:          G255
    name:        Palanzano
    latitude:    44.43539
    longitude:   10.193213
  palata:
    province_id: CB
    id:          G257
    name:        Palata
    latitude:    41.890604
    longitude:   14.785239
  palau:
    province_id: OT
    id:          G258
    name:        Palau
    latitude:    41.179444
    longitude:   9.382113
  palazzago:
    province_id: BG
    id:          G259
    name:        Palazzago
    latitude:    45.753024
    longitude:   9.533444
  palazzo_pignano:
    province_id: CR
    id:          G260
    name:        'Palazzo Pignano'
    latitude:    45.391111
    longitude:   9.57063
  palazzo_san_gervasio:
    province_id: PZ
    id:          G261
    name:        'Palazzo San Gervasio'
    latitude:    40.931411
    longitude:   15.985477
  palazzo_canavese:
    province_id: TO
    id:          G262
    name:        'Palazzo Canavese'
    latitude:    45.458622
    longitude:   7.979655
  palazzo_adriano:
    province_id: PA
    id:          G263
    name:        'Palazzo Adriano'
    latitude:    37.682198
    longitude:   13.380012
  palazzolo_sull_oglio:
    province_id: BS
    id:          G264
    name:        'Palazzolo sull''Oglio'
    latitude:    45.5996
    longitude:   9.884864
  palazzolo_vercellese:
    province_id: VC
    id:          G266
    name:        'Palazzolo Vercellese'
    latitude:    45.185585
    longitude:   8.230806
  palazzolo_acreide:
    province_id: SR
    id:          G267
    name:        'Palazzolo Acreide'
    latitude:    37.063444
    longitude:   14.904389
  palazzolo_dello_stella:
    province_id: UD
    id:          G268
    name:        'Palazzolo dello Stella'
    latitude:    45.805664
    longitude:   13.086877
  palazzuolo_sul_senio:
    province_id: FI
    id:          G270
    name:        'Palazzuolo sul Senio'
    latitude:    44.113472
    longitude:   11.548025
  palena:
    province_id: CH
    id:          G271
    name:        Palena
    latitude:    41.984074
    longitude:   14.138778
  palermiti:
    province_id: CZ
    id:          G272
    name:        Palermiti
    latitude:    38.749865
    longitude:   16.453066
  palermo:
    province_id: PA
    id:          G273
    name:        Palermo
    latitude:    38.115681
    longitude:   13.361159
  palestrina:
    province_id: RM
    id:          G274
    name:        Palestrina
    latitude:    41.835367
    longitude:   12.884538
  palestro:
    province_id: PV
    id:          G275
    name:        Palestro
    latitude:    45.302089
    longitude:   8.532547
  paliano:
    province_id: FR
    id:          G276
    name:        Paliano
    latitude:    41.806012
    longitude:   13.057877
  palizzi:
    province_id: RC
    id:          G277
    name:        Palizzi
    latitude:    37.967058
    longitude:   15.987195
  pallagorio:
    province_id: KR
    id:          G278
    name:        Pallagorio
    latitude:    39.308495
    longitude:   16.907476
  pallanzeno:
    province_id: VB
    id:          G280
    name:        Pallanzeno
    latitude:    46.042981
    longitude:   8.259222
  pallare:
    province_id: SV
    id:          G281
    name:        Pallare
    latitude:    44.328296
    longitude:   8.276407
  palma_di_montechiaro:
    province_id: AG
    id:          G282
    name:        'Palma di Montechiaro'
    latitude:    37.193759
    longitude:   13.765963
  palma_campania:
    province_id: NA
    id:          G283
    name:        'Palma Campania'
    latitude:    40.865944
    longitude:   14.549704
  palmanova:
    province_id: UD
    id:          G284
    name:        Palmanova
    latitude:    45.907204
    longitude:   13.311111
  palmariggi:
    province_id: LE
    id:          G285
    name:        Palmariggi
    latitude:    40.131741
    longitude:   18.380333
  palmas_arborea:
    province_id: OR
    id:          G286
    name:        'Palmas Arborea'
    latitude:    39.875516
    longitude:   8.646613
  san_giovanni_suergiu:
    province_id: CI
    id:          G287
    name:        'San Giovanni Suergiu'
    latitude:    39.111197
    longitude:   8.523622
  palmi:
    province_id: RC
    id:          G288
    name:        Palmi
    latitude:    38.352419
    longitude:   15.836324
  palmiano:
    province_id: AP
    id:          G289
    name:        Palmiano
    latitude:    42.900563
    longitude:   13.459003
  palmoli:
    province_id: CH
    id:          G290
    name:        Palmoli
    latitude:    41.939434
    longitude:   14.581582
  palo_del_colle:
    province_id: BA
    id:          G291
    name:        'Palo del Colle'
    latitude:    41.058611
    longitude:   16.701741
  palomonte:
    province_id: SA
    id:          G292
    name:        Palomonte
    latitude:    40.663611
    longitude:   15.292833
  palombara_sabina:
    province_id: RM
    id:          G293
    name:        'Palombara Sabina'
    latitude:    42.071194
    longitude:   12.766566
  palombaro:
    province_id: CH
    id:          G294
    name:        Palombaro
    latitude:    42.127222
    longitude:   14.230368
  palosco:
    province_id: BG
    id:          G295
    name:        Palosco
    latitude:    45.587682
    longitude:   9.836002
  palu_del_fersina:
    province_id: TN
    id:          G296
    name:        'Palù del Fersina'
    latitude:    46.129721
    longitude:   11.352372
  palu:
    province_id: VR
    id:          G297
    name:        Palù
    latitude:    45.326407
    longitude:   11.156426
  paludi:
    province_id: CS
    id:          G298
    name:        Paludi
    latitude:    39.531278
    longitude:   16.683778
  plaus:
    province_id: BZ
    id:          G299
    name:        Plaus
    latitude:    46.656218
    longitude:   11.041532
  paluzza:
    province_id: UD
    id:          G300
    name:        Paluzza
    latitude:    46.53468
    longitude:   13.020762
  pamparato:
    province_id: CN
    id:          G302
    name:        Pamparato
    latitude:    44.277715
    longitude:   7.913561
  pancalieri:
    province_id: TO
    id:          G303
    name:        Pancalieri
    latitude:    44.832352
    longitude:   7.596574
  pancarana:
    province_id: PV
    id:          G304
    name:        Pancarana
    latitude:    45.075648
    longitude:   9.051722
  panchia:
    province_id: TN
    id:          G305
    name:        Panchià
    latitude:    46.286741
    longitude:   11.543611
  pandino:
    province_id: CR
    id:          G306
    name:        Pandino
    latitude:    45.405364
    longitude:   9.553019
  panettieri:
    province_id: CS
    id:          G307
    name:        Panettieri
    latitude:    39.059983
    longitude:   16.454594
  panicale:
    province_id: PG
    id:          G308
    name:        Panicale
    latitude:    43.029428
    longitude:   12.100063
  villaricca:
    province_id: NA
    id:          G309
    name:        Villaricca
    latitude:    40.922667
    longitude:   14.190796
  pannarano:
    province_id: BN
    id:          G311
    name:        Pannarano
    latitude:    41.010963
    longitude:   14.702815
  panni:
    province_id: FG
    id:          G312
    name:        Panni
    latitude:    41.223148
    longitude:   15.275648
  ronzo_chienis:
    province_id: TN
    id:          G313
    name:        Ronzo-Chienis
    latitude:    45.890648
    longitude:   10.951278
  pantelleria:
    province_id: TP
    id:          G315
    name:        Pantelleria
    latitude:    36.829074
    longitude:   11.943463
  pantigliate:
    province_id: MI
    id:          G316
    name:        Pantigliate
    latitude:    45.433363
    longitude:   9.352025
  paola:
    province_id: CS
    id:          G317
    name:        Paola
    latitude:    39.36094
    longitude:   16.040474
  paolisi:
    province_id: BN
    id:          G318
    name:        Paolisi
    latitude:    41.03813
    longitude:   14.577352
  valderice:
    province_id: TP
    id:          G319
    name:        Valderice
    latitude:    38.036928
    longitude:   12.612208
  papasidero:
    province_id: CS
    id:          G320
    name:        Papasidero
    latitude:    39.872624
    longitude:   15.907525
  papozze:
    province_id: RO
    id:          G323
    name:        Papozze
    latitude:    44.986722
    longitude:   12.032056
  parabiago:
    province_id: MI
    id:          G324
    name:        Parabiago
    latitude:    45.556794
    longitude:   8.946241
  parabita:
    province_id: LE
    id:          G325
    name:        Parabita
    latitude:    40.048783
    longitude:   18.127696
  paratico:
    province_id: BS
    id:          G327
    name:        Paratico
    latitude:    45.654964
    longitude:   9.956982
  parcines:
    province_id: BZ
    id:          G328
    name:        Parcines
    latitude:    46.682178
    longitude:   11.06827
  pare:
    province_id: CO
    id:          G329
    name:        Parè
    latitude:    45.811889
    longitude:   9.009852
  parella:
    province_id: TO
    id:          G330
    name:        Parella
    latitude:    45.430294
    longitude:   7.794183
  parenti:
    province_id: CS
    id:          G331
    name:        Parenti
    latitude:    39.163296
    longitude:   16.411426
  parete:
    province_id: CE
    id:          G333
    name:        Parete
    latitude:    40.960018
    longitude:   14.162815
  pareto:
    province_id: AL
    id:          G334
    name:        Pareto
    latitude:    44.517518
    longitude:   8.382981
  parghelia:
    province_id: VV
    id:          G335
    name:        Parghelia
    latitude:    38.682056
    longitude:   15.923463
  parlasco:
    province_id: LC
    id:          G336
    name:        Parlasco
    latitude:    46.01873
    longitude:   9.34557
  parma:
    province_id: PR
    id:          G337
    name:        Parma
    latitude:    44.804446
    longitude:   10.332515
  parodi_ligure:
    province_id: AL
    id:          G338
    name:        'Parodi Ligure'
    latitude:    44.670709
    longitude:   8.758052
  paroldo:
    province_id: CN
    id:          G339
    name:        Paroldo
    latitude:    44.433148
    longitude:   8.073611
  parolise:
    province_id: AV
    id:          G340
    name:        Parolise
    latitude:    40.931478
    longitude:   14.883811
  parona:
    province_id: PV
    id:          G342
    name:        Parona
    latitude:    45.28277
    longitude:   8.751717
  parrano:
    province_id: TR
    id:          G344
    name:        Parrano
    latitude:    42.86737
    longitude:   12.111259
  parre:
    province_id: BG
    id:          G346
    name:        Parre
    latitude:    45.872404
    longitude:   9.888075
  partanna:
    province_id: TP
    id:          G347
    name:        Partanna
    latitude:    37.728907
    longitude:   12.889556
  partinico:
    province_id: PA
    id:          G348
    name:        Partinico
    latitude:    38.045
    longitude:   13.120944
  paruzzaro:
    province_id: NO
    id:          G349
    name:        Paruzzaro
    latitude:    45.749716
    longitude:   8.517686
  parzanica:
    province_id: BG
    id:          G350
    name:        Parzanica
    latitude:    45.738163
    longitude:   10.036436
  pasian_di_prato:
    province_id: UD
    id:          G352
    name:        'Pasian di Prato'
    latitude:    46.047148
    longitude:   13.189802
  pasiano_di_pordenone:
    province_id: PN
    id:          G353
    name:        'Pasiano di Pordenone'
    latitude:    45.849027
    longitude:   12.625204
  paspardo:
    province_id: BS
    id:          G354
    name:        Paspardo
    latitude:    46.031111
    longitude:   10.370467
  passerano_marmorito:
    province_id: AT
    id:          G358
    name:        'Passerano Marmorito'
    latitude:    45.057744
    longitude:   8.018928
  passignano_sul_trasimeno:
    province_id: PG
    id:          G359
    name:        'Passignano sul Trasimeno'
    latitude:    43.195167
    longitude:   12.130333
  passirano:
    province_id: BS
    id:          G361
    name:        Passirano
    latitude:    45.599704
    longitude:   10.067833
  pastena:
    province_id: FR
    id:          G362
    name:        Pastena
    latitude:    41.469527
    longitude:   13.491227
  pastorano:
    province_id: CE
    id:          G364
    name:        Pastorano
    latitude:    41.181889
    longitude:   14.199241
  pastrengo:
    province_id: VR
    id:          G365
    name:        Pastrengo
    latitude:    45.494074
    longitude:   10.800963
  pasturana:
    province_id: AL
    id:          G367
    name:        Pasturana
    latitude:    44.751885
    longitude:   8.750308
  pasturo:
    province_id: LC
    id:          G368
    name:        Pasturo
    latitude:    45.952227
    longitude:   9.444984
  paternopoli:
    province_id: AV
    id:          G370
    name:        Paternopoli
    latitude:    40.974389
    longitude:   15.032981
  paterno:
    province_id: PZ
    id:          M269
    name:        Paterno
    latitude:    40.379389
    longitude:   15.733778
  paterno_calabro:
    province_id: CS
    id:          G372
    name:        'Paterno Calabro'
    latitude:    39.227379
    longitude:   16.268589
  patrica:
    province_id: FR
    id:          G374
    name:        Patrica
    latitude:    41.592832
    longitude:   13.24516
  pattada:
    province_id: SS
    id:          G376
    name:        Pattada
    latitude:    40.582815
    longitude:   9.113907
  patti:
    province_id: ME
    id:          G377
    name:        Patti
    latitude:    38.141266
    longitude:   14.965814
  patu:
    province_id: LE
    id:          G378
    name:        Patù
    latitude:    39.84237
    longitude:   18.33987
  pau:
    province_id: OR
    id:          G379
    name:        Pau
    latitude:    39.791625
    longitude:   8.801642
  paularo:
    province_id: UD
    id:          G381
    name:        Paularo
    latitude:    46.528707
    longitude:   13.120406
  pauli_arbarei:
    province_id: VS
    id:          G382
    name:        'Pauli Arbarei'
    latitude:    39.661889
    longitude:   8.923148
  san_nicolo_gerrei:
    province_id: CA
    id:          G383
    name:        'San Nicolò Gerrei'
    latitude:    39.498611
    longitude:   9.30813
  paulilatino:
    province_id: OR
    id:          G384
    name:        Paulilatino
    latitude:    40.085167
    longitude:   8.764537
  paullo:
    province_id: MI
    id:          G385
    name:        Paullo
    latitude:    45.418006
    longitude:   9.40023
  paupisi:
    province_id: BN
    id:          G386
    name:        Paupisi
    latitude:    41.195118
    longitude:   14.666271
  pavarolo:
    province_id: TO
    id:          G387
    name:        Pavarolo
    latitude:    45.069517
    longitude:   7.836241
  pavia:
    province_id: PV
    id:          G388
    name:        Pavia
    latitude:    45.18588
    longitude:   9.156594
  pavia_di_udine:
    province_id: UD
    id:          G389
    name:        'Pavia di Udine'
    latitude:    45.99737
    longitude:   13.305167
  pavone_del_mella:
    province_id: BS
    id:          G391
    name:        'Pavone del Mella'
    latitude:    45.302497
    longitude:   10.210603
  pavone_canavese:
    province_id: TO
    id:          G392
    name:        'Pavone Canavese'
    latitude:    45.435458
    longitude:   7.852923
  pavullo_nel_frignano:
    province_id: MO
    id:          G393
    name:        'Pavullo nel Frignano'
    latitude:    44.332518
    longitude:   10.836111
  pazzano:
    province_id: RC
    id:          G394
    name:        Pazzano
    latitude:    38.475743
    longitude:   16.451902
  peccioli:
    province_id: PI
    id:          G395
    name:        Peccioli
    latitude:    43.546615
    longitude:   10.719196
  pecco:
    province_id: TO
    id:          G396
    name:        Pecco
    latitude:    45.451805
    longitude:   7.777187
  pecetto_di_valenza:
    province_id: AL
    id:          G397
    name:        'Pecetto di Valenza'
    latitude:    44.991028
    longitude:   8.672068
  pecetto_torinese:
    province_id: TO
    id:          G398
    name:        'Pecetto Torinese'
    latitude:    45.01721
    longitude:   7.75037
  pecorara:
    province_id: PC
    id:          G399
    name:        Pecorara
    latitude:    44.87737
    longitude:   9.385315
  pedace:
    province_id: CS
    id:          G400
    name:        Pedace
    latitude:    39.275491
    longitude:   16.337523
  pedara:
    province_id: CT
    id:          G402
    name:        Pedara
    latitude:    37.618954
    longitude:   15.060848
  pedaso:
    province_id: AP
    id:          G403
    name:        Pedaso
    latitude:    43.100167
    longitude:   13.841722
  pedavena:
    province_id: BL
    id:          G404
    name:        Pedavena
    latitude:    46.039614
    longitude:   11.880379
  pedemonte:
    province_id: VI
    id:          G406
    name:        Pedemonte
    latitude:    45.908778
    longitude:   11.30713
  san_paolo:
    province_id: BS
    id:          G407
    name:        'San Paolo'
    latitude:    45.371574
    longitude:   10.027815
  pederobba:
    province_id: TV
    id:          G408
    name:        Pederobba
    latitude:    45.877998
    longitude:   11.954953
  pedesina:
    province_id: SO
    id:          G410
    name:        Pedesina
    latitude:    46.082815
    longitude:   9.550648
  pedivigliano:
    province_id: CS
    id:          G411
    name:        Pedivigliano
    latitude:    39.109624
    longitude:   16.301226
  pedrengo:
    province_id: BG
    id:          G412
    name:        Pedrengo
    latitude:    45.697056
    longitude:   9.736111
  peglio:
    province_id: PU
    id:          G416
    name:        Peglio
    latitude:    43.696008
    longitude:   12.497828
  pegognaga:
    province_id: MN
    id:          G417
    name:        Pegognaga
    latitude:    44.993778
    longitude:   10.860796
  peia:
    province_id: BG
    id:          G418
    name:        Peia
    latitude:    45.801923
    longitude:   9.89977
  peio:
    province_id: TN
    id:          G419
    name:        Peio
    latitude:    46.362791
    longitude:   10.673404
  pelago:
    province_id: FI
    id:          G420
    name:        Pelago
    latitude:    43.772178
    longitude:   11.504035
  pella:
    province_id: NO
    id:          G421
    name:        Pella
    latitude:    45.800112
    longitude:   8.385885
  pellegrino_parmense:
    province_id: PR
    id:          G424
    name:        'Pellegrino Parmense'
    latitude:    44.730834
    longitude:   9.93225
  pellezzano:
    province_id: SA
    id:          G426
    name:        Pellezzano
    latitude:    40.726218
    longitude:   14.758409
  pellio_intelvi:
    province_id: CO
    id:          G427
    name:        'Pellio Intelvi'
    latitude:    45.98071
    longitude:   9.059779
  pellizzano:
    province_id: TN
    id:          G428
    name:        Pellizzano
    latitude:    46.310963
    longitude:   10.760944
  pelugo:
    province_id: TN
    id:          G429
    name:        Pelugo
    latitude:    46.088924
    longitude:   10.723762
  penango:
    province_id: AT
    id:          G430
    name:        Penango
    latitude:    45.031475
    longitude:   8.250567
  poggiridenti:
    province_id: SO
    id:          G431
    name:        Poggiridenti
    latitude:    46.175796
    longitude:   9.927204
  penna_in_teverina:
    province_id: TR
    id:          G432
    name:        'Penna in Teverina'
    latitude:    42.49313
    longitude:   12.358611
  pennabilli:
    province_id: PU
    id:          G433
    name:        Pennabilli
    latitude:    43.819074
    longitude:   12.266741
  pennadomo:
    province_id: CH
    id:          G434
    name:        Pennadomo
    latitude:    42.005963
    longitude:   14.325333
  pennapiedimonte:
    province_id: CH
    id:          G435
    name:        Pennapiedimonte
    latitude:    42.154717
    longitude:   14.194812
  penna_san_giovanni:
    province_id: MC
    id:          G436
    name:        'Penna San Giovanni'
    latitude:    43.057399
    longitude:   13.427134
  penna_sant_andrea:
    province_id: TE
    id:          G437
    name:        'Penna Sant''Andrea'
    latitude:    42.594294
    longitude:   13.772051
  penne:
    province_id: PE
    id:          G438
    name:        Penne
    latitude:    42.457622
    longitude:   13.927475
  pentone:
    province_id: CZ
    id:          G439
    name:        Pentone
    latitude:    38.986889
    longitude:   16.583463
  perano:
    province_id: CH
    id:          G441
    name:        Perano
    latitude:    42.104241
    longitude:   14.395018
  perarolo_di_cadore:
    province_id: BL
    id:          G442
    name:        'Perarolo di Cadore'
    latitude:    46.39707
    longitude:   12.355464
  perca:
    province_id: BZ
    id:          G443
    name:        Perca
    latitude:    46.790932
    longitude:   11.982941
  percile:
    province_id: RM
    id:          G444
    name:        Percile
    latitude:    42.095134
    longitude:   12.910784
  perdasdefogu:
    province_id: OG
    id:          G445
    name:        Perdasdefogu
    latitude:    39.677833
    longitude:   9.441426
  perdaxius:
    province_id: CI
    id:          G446
    name:        Perdaxius
    latitude:    39.162204
    longitude:   8.612518
  perdifumo:
    province_id: SA
    id:          G447
    name:        Perdifumo
    latitude:    40.266416
    longitude:   15.018002
  perego:
    province_id: LC
    id:          G448
    name:        Perego
    latitude:    45.738611
    longitude:   9.364074
  pereto:
    province_id: AQ
    id:          G449
    name:        Pereto
    latitude:    42.059125
    longitude:   13.100641
  perfugas:
    province_id: SS
    id:          G450
    name:        Perfugas
    latitude:    40.834556
    longitude:   8.883926
  pergine_valdarno:
    province_id: AR
    id:          G451
    name:        'Pergine Valdarno'
    latitude:    43.471407
    longitude:   11.686722
  pergine_valsugana:
    province_id: TN
    id:          G452
    name:        'Pergine Valsugana'
    latitude:    46.061699
    longitude:   11.237123
  pergola:
    province_id: PU
    id:          G453
    name:        Pergola
    latitude:    43.557515
    longitude:   12.836352
  perinaldo:
    province_id: IM
    id:          G454
    name:        Perinaldo
    latitude:    43.867624
    longitude:   7.669886
  perito:
    province_id: SA
    id:          G455
    name:        Perito
    latitude:    40.29621
    longitude:   15.144099
  perledo:
    province_id: LC
    id:          G456
    name:        Perledo
    latitude:    46.01737
    longitude:   9.294222
  perletto:
    province_id: CN
    id:          G457
    name:        Perletto
    latitude:    44.600315
    longitude:   8.214241
  perlo:
    province_id: CN
    id:          G458
    name:        Perlo
    latitude:    44.332792
    longitude:   8.083557
  perloz:
    province_id: AO
    id:          G459
    name:        Perloz
    latitude:    45.614855
    longitude:   7.808375
  pernumia:
    province_id: PD
    id:          G461
    name:        Pernumia
    latitude:    45.258427
    longitude:   11.788965
  perosa_canavese:
    province_id: TO
    id:          G462
    name:        'Perosa Canavese'
    latitude:    45.398148
    longitude:   7.832056
  perosa_argentina:
    province_id: TO
    id:          G463
    name:        'Perosa Argentina'
    latitude:    44.9569
    longitude:   7.191904
  perrero:
    province_id: TO
    id:          G465
    name:        Perrero
    latitude:    44.938328
    longitude:   7.114769
  san_giovanni_in_persiceto:
    province_id: BO
    id:          G467
    name:        'San Giovanni in Persiceto'
    latitude:    44.640944
    longitude:   11.185167
  persico_dosimo:
    province_id: CR
    id:          G469
    name:        'Persico Dosimo'
    latitude:    45.16833
    longitude:   10.07888
  pertengo:
    province_id: VC
    id:          G471
    name:        Pertengo
    latitude:    45.236058
    longitude:   8.41762
  pertica_alta:
    province_id: BS
    id:          G474
    name:        'Pertica Alta'
    latitude:    45.743463
    longitude:   10.345333
  pertica_bassa:
    province_id: BS
    id:          G475
    name:        'Pertica Bassa'
    latitude:    45.754389
    longitude:   10.373611
  pertosa:
    province_id: SA
    id:          G476
    name:        Pertosa
    latitude:    40.544704
    longitude:   15.44987
  pertusio:
    province_id: TO
    id:          G477
    name:        Pertusio
    latitude:    45.356741
    longitude:   7.642667
  perugia:
    province_id: PG
    id:          G478
    name:        Perugia
    latitude:    43.110701
    longitude:   12.389172
  pesaro:
    province_id: PU
    id:          G479
    name:        Pesaro
    latitude:    43.912069
    longitude:   12.915744
  pescaglia:
    province_id: LU
    id:          G480
    name:        Pescaglia
    latitude:    43.96737
    longitude:   10.412204
  pescantina:
    province_id: VR
    id:          G481
    name:        Pescantina
    latitude:    45.482725
    longitude:   10.867548
  pescara:
    province_id: PE
    id:          G482
    name:        Pescara
    latitude:    42.464826
    longitude:   14.214095
  pescarolo_ed_uniti:
    province_id: CR
    id:          G483
    name:        'Pescarolo ed Uniti'
    latitude:    45.194852
    longitude:   10.1875
  pescasseroli:
    province_id: AQ
    id:          G484
    name:        Pescasseroli
    latitude:    41.808249
    longitude:   13.78958
  pescate:
    province_id: LC
    id:          G485
    name:        Pescate
    latitude:    45.83425
    longitude:   9.39394
  pesche:
    province_id: IS
    id:          G486
    name:        Pesche
    latitude:    41.61011
    longitude:   14.282056
  peschici:
    province_id: FG
    id:          G487
    name:        Peschici
    latitude:    41.947037
    longitude:   16.013491
  peschiera_borromeo:
    province_id: MI
    id:          G488
    name:        'Peschiera Borromeo'
    latitude:    45.432025
    longitude:   9.312296
  peschiera_del_garda:
    province_id: VR
    id:          G489
    name:        'Peschiera del Garda'
    latitude:    45.439387
    longitude:   10.692055
  pescia:
    province_id: PT
    id:          G491
    name:        Pescia
    latitude:    43.898148
    longitude:   10.691407
  pescina:
    province_id: AQ
    id:          G492
    name:        Pescina
    latitude:    42.026294
    longitude:   13.659567
  pescocostanzo:
    province_id: AQ
    id:          G493
    name:        Pescocostanzo
    latitude:    41.888592
    longitude:   14.064273
  pesco_sannita:
    province_id: BN
    id:          G494
    name:        'Pesco Sannita'
    latitude:    41.233778
    longitude:   14.813148
  pescolanciano:
    province_id: IS
    id:          G495
    name:        Pescolanciano
    latitude:    41.679556
    longitude:   14.33813
  pescopagano:
    province_id: PZ
    id:          G496
    name:        Pescopagano
    latitude:    40.836048
    longitude:   15.398804
  pescopennataro:
    province_id: IS
    id:          G497
    name:        Pescopennataro
    latitude:    41.880191
    longitude:   14.293236
  pescorocchiano:
    province_id: RI
    id:          G498
    name:        Pescorocchiano
    latitude:    42.207518
    longitude:   13.147204
  pescosansonesco:
    province_id: PE
    id:          G499
    name:        Pescosansonesco
    latitude:    42.255103
    longitude:   13.884431
  pescosolido:
    province_id: FR
    id:          G500
    name:        Pescosolido
    latitude:    41.749241
    longitude:   13.6575
  pessano_con_bornago:
    province_id: MI
    id:          G502
    name:        'Pessano con Bornago'
    latitude:    45.551507
    longitude:   9.386971
  pessina_cremonese:
    province_id: CR
    id:          G504
    name:        'Pessina Cremonese'
    latitude:    45.186407
    longitude:   10.24987
  pessinetto:
    province_id: TO
    id:          G505
    name:        Pessinetto
    latitude:    45.289181
    longitude:   7.403896
  petacciato:
    province_id: CB
    id:          G506
    name:        Petacciato
    latitude:    42.012518
    longitude:   14.861889
  turania:
    province_id: RI
    id:          G507
    name:        Turania
    latitude:    42.13881
    longitude:   13.009016
  petilia_policastro:
    province_id: KR
    id:          G508
    name:        'Petilia Policastro'
    latitude:    39.115018
    longitude:   16.786426
  petina:
    province_id: SA
    id:          G509
    name:        Petina
    latitude:    -32.476578
    longitude:   134.396888
  petralia_soprana:
    province_id: PA
    id:          G510
    name:        'Petralia Soprana'
    latitude:    37.797961
    longitude:   14.107629
  petralia_sottana:
    province_id: PA
    id:          G511
    name:        'Petralia Sottana'
    latitude:    37.808212
    longitude:   14.091197
  petrella_tifernina:
    province_id: CB
    id:          G512
    name:        'Petrella Tifernina'
    latitude:    41.6925
    longitude:   14.697204
  petrella_salto:
    province_id: RI
    id:          G513
    name:        'Petrella Salto'
    latitude:    42.295685
    longitude:   13.069025
  petriano:
    province_id: PU
    id:          G514
    name:        Petriano
    latitude:    43.779354
    longitude:   12.732552
  petriolo:
    province_id: MC
    id:          G515
    name:        Petriolo
    latitude:    43.222352
    longitude:   13.465481
  petritoli:
    province_id: AP
    id:          G516
    name:        Petritoli
    latitude:    43.067474
    longitude:   13.656734
  petrizzi:
    province_id: CZ
    id:          G517
    name:        Petrizzi
    latitude:    38.701969
    longitude:   16.472715
  petrona:
    province_id: CZ
    id:          G518
    name:        Petronà
    latitude:    39.043233
    longitude:   16.7582
  petruro_irpino:
    province_id: AV
    id:          G519
    name:        'Petruro Irpino'
    latitude:    41.032224
    longitude:   14.798313
  pettenasco:
    province_id: NO
    id:          G520
    name:        Pettenasco
    latitude:    45.8175
    longitude:   8.40813
  pettinengo:
    province_id: BI
    id:          G521
    name:        Pettinengo
    latitude:    45.614074
    longitude:   8.105315
  pettineo:
    province_id: ME
    id:          G522
    name:        Pettineo
    latitude:    37.96725
    longitude:   14.290524
  pettoranello_del_molise:
    province_id: IS
    id:          G523
    name:        'Pettoranello del Molise'
    latitude:    41.574241
    longitude:   14.278444
  pettorano_sul_gizio:
    province_id: AQ
    id:          G524
    name:        'Pettorano sul Gizio'
    latitude:    41.975648
    longitude:   13.959704
  pettorazza_grimani:
    province_id: RO
    id:          G525
    name:        'Pettorazza Grimani'
    latitude:    45.137037
    longitude:   11.987815
  peveragno:
    province_id: CN
    id:          G526
    name:        Peveragno
    latitude:    44.3325
    longitude:   7.620944
  pezzana:
    province_id: VC
    id:          G528
    name:        Pezzana
    latitude:    45.263148
    longitude:   8.486278
  pezzaze:
    province_id: BS
    id:          G529
    name:        Pezzaze
    latitude:    45.777385
    longitude:   10.237036
  pezzolo_valle_uzzone:
    province_id: CN
    id:          G532
    name:        'Pezzolo Valle Uzzone'
    latitude:    44.539795
    longitude:   8.194751
  piacenza_d_adige:
    province_id: PD
    id:          G534
    name:        'Piacenza D''Adige'
    latitude:    45.12967
    longitude:   11.550364
  piacenza:
    province_id: PC
    id:          G535
    name:        Piacenza
    latitude:    45.052392
    longitude:   9.698744
  piadena:
    province_id: CR
    id:          G536
    name:        Piadena
    latitude:    45.128247
    longitude:   10.37016
  piagge:
    province_id: PU
    id:          G537
    name:        Piagge
    latitude:    43.735354
    longitude:   12.969802
  piaggine:
    province_id: SA
    id:          G538
    name:        Piaggine
    latitude:    40.345964
    longitude:   15.379544
  valle_dell_angelo:
    province_id: SA
    id:          G540
    name:        'Valle dell''Angelo'
    latitude:    40.344328
    longitude:   15.36989
  piana_di_monte_verna:
    province_id: CE
    id:          G541
    name:        'Piana di Monte Verna'
    latitude:    41.16813
    longitude:   14.334704
  piana_crixia:
    province_id: SV
    id:          G542
    name:        'Piana Crixia'
    latitude:    44.486111
    longitude:   8.309241
  piana_degli_albanesi:
    province_id: PA
    id:          G543
    name:        'Piana degli Albanesi'
    latitude:    37.996457
    longitude:   13.283663
  pontboset:
    province_id: AO
    id:          G545
    name:        Pontboset
    latitude:    45.607641
    longitude:   7.685627
  pian_camuno:
    province_id: BS
    id:          G546
    name:        'Pian Camuno'
    latitude:    45.844341
    longitude:   10.15784
  piancastagnaio:
    province_id: SI
    id:          G547
    name:        Piancastagnaio
    latitude:    42.851741
    longitude:   11.685944
  piancogno:
    province_id: BS
    id:          G549
    name:        Piancogno
    latitude:    45.920638
    longitude:   10.226707
  piandimeleto:
    province_id: PU
    id:          G551
    name:        Piandimeleto
    latitude:    43.725167
    longitude:   12.412037
  pian_di_sco:
    province_id: AR
    id:          G552
    name:        'Pian di Sco'
    latitude:    43.642981
    longitude:   11.546259
  piane_crati:
    province_id: CS
    id:          G553
    name:        'Piane Crati'
    latitude:    39.234026
    longitude:   16.325178
  pianella:
    province_id: PE
    id:          G555
    name:        Pianella
    latitude:    42.397303
    longitude:   14.047763
  pianello_del_lario:
    province_id: CO
    id:          G556
    name:        'Pianello del Lario'
    latitude:    46.103759
    longitude:   9.278148
  pianello_val_tidone:
    province_id: PC
    id:          G557
    name:        'Pianello Val Tidone'
    latitude:    44.947667
    longitude:   9.406259
  pianengo:
    province_id: CR
    id:          G558
    name:        Pianengo
    latitude:    45.40313
    longitude:   9.695963
  pianezza:
    province_id: TO
    id:          G559
    name:        Pianezza
    latitude:    45.09858
    longitude:   7.548355
  pianezze:
    province_id: VI
    id:          G560
    name:        Pianezze
    latitude:    45.740796
    longitude:   11.627981
  pianfei:
    province_id: CN
    id:          G561
    name:        Pianfei
    latitude:    44.373148
    longitude:   7.7125
  pianico:
    province_id: BG
    id:          G564
    name:        Pianico
    latitude:    45.810963
    longitude:   10.044241
  pianiga:
    province_id: VE
    id:          G565
    name:        Pianiga
    latitude:    45.456129
    longitude:   12.030934
  san_benedetto_val_di_sambro:
    province_id: BO
    id:          G566
    name:        'San Benedetto Val di Sambro'
    latitude:    44.215678
    longitude:   11.23429
  piano_di_sorrento:
    province_id: NA
    id:          G568
    name:        'Piano di Sorrento'
    latitude:    40.636589
    longitude:   14.407012
  pianoro:
    province_id: BO
    id:          G570
    name:        Pianoro
    latitude:    44.387309
    longitude:   11.34331
  piansano:
    province_id: VT
    id:          G571
    name:        Piansano
    latitude:    42.523296
    longitude:   11.830167
  piantedo:
    province_id: SO
    id:          G572
    name:        Piantedo
    latitude:    46.135167
    longitude:   9.430481
  piario:
    province_id: BG
    id:          G574
    name:        Piario
    latitude:    45.896033
    longitude:   9.924392
  piasco:
    province_id: CN
    id:          G575
    name:        Piasco
    latitude:    44.564074
    longitude:   7.455018
  piateda:
    province_id: SO
    id:          G576
    name:        Piateda
    latitude:    46.160648
    longitude:   9.936111
  piatto:
    province_id: BI
    id:          G577
    name:        Piatto
    latitude:    45.590963
    longitude:   8.136407
  piazza_brembana:
    province_id: BG
    id:          G579
    name:        'Piazza Brembana'
    latitude:    45.947667
    longitude:   9.675167
  piazza_armerina:
    province_id: EN
    id:          G580
    name:        'Piazza Armerina'
    latitude:    37.383506
    longitude:   14.369671
  piazza_al_serchio:
    province_id: LU
    id:          G582
    name:        'Piazza al Serchio'
    latitude:    44.184402
    longitude:   10.297823
  piazzatorre:
    province_id: BG
    id:          G583
    name:        Piazzatorre
    latitude:    45.993449
    longitude:   9.69399
  piazzola_sul_brenta:
    province_id: PD
    id:          G587
    name:        'Piazzola sul Brenta'
    latitude:    45.541983
    longitude:   11.786335
  piazzolo:
    province_id: BG
    id:          G588
    name:        Piazzolo
    latitude:    45.979178
    longitude:   9.670736
  picciano:
    province_id: PE
    id:          G589
    name:        Picciano
    latitude:    42.476195
    longitude:   13.990075
  picerno:
    province_id: PZ
    id:          G590
    name:        Picerno
    latitude:    40.641307
    longitude:   15.642372
  picinisco:
    province_id: FR
    id:          G591
    name:        Picinisco
    latitude:    41.646414
    longitude:   13.867705
  pico:
    province_id: FR
    id:          G592
    name:        Pico
    latitude:    41.451889
    longitude:   13.560648
  piea:
    province_id: AT
    id:          G593
    name:        Piea
    latitude:    45.023226
    longitude:   8.068086
  piedicavallo:
    province_id: BI
    id:          G594
    name:        Piedicavallo
    latitude:    45.689303
    longitude:   7.954676
  piedimonte_matese:
    province_id: CE
    id:          G596
    name:        'Piedimonte Matese'
    latitude:    41.35489
    longitude:   14.370462
  piedimonte_etneo:
    province_id: CT
    id:          G597
    name:        'Piedimonte Etneo'
    latitude:    37.807981
    longitude:   15.177518
  piedimonte_san_germano:
    province_id: FR
    id:          G598
    name:        'Piedimonte San Germano'
    latitude:    41.497319
    longitude:   13.749924
  piedimulera:
    province_id: VB
    id:          G600
    name:        Piedimulera
    latitude:    46.025546
    longitude:   8.260013
  piegaro:
    province_id: PG
    id:          G601
    name:        Piegaro
    latitude:    42.970225
    longitude:   12.085975
  pienza:
    province_id: SI
    id:          G602
    name:        Pienza
    latitude:    43.078926
    longitude:   11.678907
  pieranica:
    province_id: CR
    id:          G603
    name:        Pieranica
    latitude:    45.425644
    longitude:   9.607508
  pietramontecorvino:
    province_id: FG
    id:          G604
    name:        Pietramontecorvino
    latitude:    41.542667
    longitude:   15.128444
  pietra_ligure:
    province_id: SV
    id:          G605
    name:        'Pietra Ligure'
    latitude:    44.14886
    longitude:   8.28271
  pietrabbondante:
    province_id: IS
    id:          G606
    name:        Pietrabbondante
    latitude:    41.74813
    longitude:   14.385315
  pietrabruna:
    province_id: IM
    id:          G607
    name:        Pietrabruna
    latitude:    43.888102
    longitude:   7.90369
  pietracamela:
    province_id: TE
    id:          G608
    name:        Pietracamela
    latitude:    42.523048
    longitude:   13.553393
  pietracatella:
    province_id: CB
    id:          G609
    name:        Pietracatella
    latitude:    41.580632
    longitude:   14.873199
  pietracupa:
    province_id: CB
    id:          G610
    name:        Pietracupa
    latitude:    41.683079
    longitude:   14.520031
  pietradefusi:
    province_id: AV
    id:          G611
    name:        Pietradefusi
    latitude:    41.0425
    longitude:   14.886407
  pietra_de_giorgi:
    province_id: PV
    id:          G612
    name:        'Pietra de'' Giorgi'
    latitude:    45.022647
    longitude:   9.230817
  pietraferrazzana:
    province_id: CH
    id:          G613
    name:        Pietraferrazzana
    latitude:    41.969852
    longitude:   14.375018
  satriano_di_lucania:
    province_id: PZ
    id:          G614
    name:        'Satriano di Lucania'
    latitude:    40.543954
    longitude:   15.639163
  pietrafitta:
    province_id: CS
    id:          G615
    name:        Pietrafitta
    latitude:    39.261352
    longitude:   16.341376
  pietragalla:
    province_id: PZ
    id:          G616
    name:        Pietragalla
    latitude:    40.747652
    longitude:   15.880465
  pietralunga:
    province_id: PG
    id:          G618
    name:        Pietralunga
    latitude:    43.437833
    longitude:   12.432204
  pietra_marazzi:
    province_id: AL
    id:          G619
    name:        'Pietra Marazzi'
    latitude:    44.943778
    longitude:   8.669704
  pietramelara:
    province_id: CE
    id:          G620
    name:        Pietramelara
    latitude:    41.270105
    longitude:   14.18751
  pietranico:
    province_id: PE
    id:          G621
    name:        Pietranico
    latitude:    42.277365
    longitude:   13.91143
  pietrapaola:
    province_id: CS
    id:          G622
    name:        Pietrapaola
    latitude:    39.487278
    longitude:   16.815578
  pietrapertosa:
    province_id: PZ
    id:          G623
    name:        Pietrapertosa
    latitude:    40.519381
    longitude:   16.062929
  pietraperzia:
    province_id: EN
    id:          G624
    name:        Pietraperzia
    latitude:    37.421111
    longitude:   14.137981
  pietraporzio:
    province_id: CN
    id:          G625
    name:        Pietraporzio
    latitude:    44.344544
    longitude:   7.031841
  pietraroja:
    province_id: BN
    id:          G626
    name:        Pietraroja
    latitude:    41.348874
    longitude:   14.550397
  pietrarubbia:
    province_id: PU
    id:          G627
    name:        Pietrarubbia
    latitude:    43.805796
    longitude:   12.377815
  pietrasanta:
    province_id: LU
    id:          G628
    name:        Pietrasanta
    latitude:    43.956659
    longitude:   10.226642
  pietrastornina:
    province_id: AV
    id:          G629
    name:        Pietrastornina
    latitude:    40.993463
    longitude:   14.729852
  pietravairano:
    province_id: CE
    id:          G630
    name:        Pietravairano
    latitude:    41.327216
    longitude:   14.169806
  pietrelcina:
    province_id: BN
    id:          G631
    name:        Pietrelcina
    latitude:    41.19784
    longitude:   14.848536
  pieve_di_teco:
    province_id: IM
    id:          G632
    name:        'Pieve di Teco'
    latitude:    44.048148
    longitude:   7.916111
  pieve_di_coriano:
    province_id: MN
    id:          G633
    name:        'Pieve di Coriano'
    latitude:    45.034391
    longitude:   11.106939
  pieve_emanuele:
    province_id: MI
    id:          G634
    name:        'Pieve Emanuele'
    latitude:    45.355916
    longitude:   9.202671
  pieve_albignola:
    province_id: PV
    id:          G635
    name:        'Pieve Albignola'
    latitude:    45.113926
    longitude:   8.9625
  pieve_a_nievole:
    province_id: PT
    id:          G636
    name:        'Pieve a Nievole'
    latitude:    43.872833
    longitude:   10.8025
  pievebovigliana:
    province_id: MC
    id:          G637
    name:        Pievebovigliana
    latitude:    43.06413
    longitude:   13.083898
  pieve_d_alpago:
    province_id: BL
    id:          G638
    name:        'Pieve D''Alpago'
    latitude:    46.167752
    longitude:   12.353186
  pieve_del_cairo:
    province_id: PV
    id:          G639
    name:        'Pieve del Cairo'
    latitude:    45.050944
    longitude:   8.805333
  pieve_di_bono:
    province_id: TN
    id:          G641
    name:        'Pieve di Bono'
    latitude:    45.942934
    longitude:   10.640933
  pieve_di_cadore:
    province_id: BL
    id:          G642
    name:        'Pieve di Cadore'
    latitude:    46.428522
    longitude:   12.374066
  pieve_di_cento:
    province_id: BO
    id:          G643
    name:        'Pieve di Cento'
    latitude:    44.713296
    longitude:   11.308778
  pieve_di_ledro:
    province_id: TN
    id:          G644
    name:        'Pieve di Ledro'
    latitude:    45.888664
    longitude:   10.731146
  pieve_di_soligo:
    province_id: TV
    id:          G645
    name:        'Pieve di Soligo'
    latitude:    45.900022
    longitude:   12.171471
  pieve_ligure:
    province_id: GE
    id:          G646
    name:        'Pieve Ligure'
    latitude:    44.375598
    longitude:   9.09375
  pieve_d_olmi:
    province_id: CR
    id:          G647
    name:        'Pieve D''Olmi'
    latitude:    45.089348
    longitude:   10.124218
  pieve_fosciana:
    province_id: LU
    id:          G648
    name:        'Pieve Fosciana'
    latitude:    44.131974
    longitude:   10.410463
  pievepelago:
    province_id: MO
    id:          G649
    name:        Pievepelago
    latitude:    44.205796
    longitude:   10.617667
  pieve_porto_morone:
    province_id: PV
    id:          G650
    name:        'Pieve Porto Morone'
    latitude:    45.110315
    longitude:   9.436889
  pieve_san_giacomo:
    province_id: CR
    id:          G651
    name:        'Pieve San Giacomo'
    latitude:    45.131259
    longitude:   10.187352
  pieve_santo_stefano:
    province_id: AR
    id:          G653
    name:        'Pieve Santo Stefano'
    latitude:    43.671143
    longitude:   12.040796
  ramiseto:
    province_id: RE
    id:          G654
    name:        Ramiseto
    latitude:    44.413403
    longitude:   10.280958
  pieve_tesino:
    province_id: TN
    id:          G656
    name:        'Pieve Tesino'
    latitude:    46.069241
    longitude:   11.611426
  pieve_torina:
    province_id: MC
    id:          G657
    name:        'Pieve Torina'
    latitude:    43.04313
    longitude:   13.046889
  pieve_vergonte:
    province_id: VB
    id:          G658
    name:        'Pieve Vergonte'
    latitude:    46.013907
    longitude:   8.262055
  piglio:
    province_id: FR
    id:          G659
    name:        Piglio
    latitude:    41.830209
    longitude:   13.146084
  pigna:
    province_id: IM
    id:          G660
    name:        Pigna
    latitude:    43.933296
    longitude:   7.661889
  pignataro_maggiore:
    province_id: CE
    id:          G661
    name:        'Pignataro Maggiore'
    latitude:    41.191889
    longitude:   14.173296
  pignataro_interamna:
    province_id: FR
    id:          G662
    name:        'Pignataro Interamna'
    latitude:    41.440333
    longitude:   13.787204
  pignola:
    province_id: PZ
    id:          G663
    name:        Pignola
    latitude:    40.574241
    longitude:   15.784074
  pignone:
    province_id: SP
    id:          G664
    name:        Pignone
    latitude:    44.179222
    longitude:   9.725167
  pigra:
    province_id: CO
    id:          G665
    name:        Pigra
    latitude:    45.95708
    longitude:   9.126957
  pila:
    province_id: VC
    id:          G666
    name:        Pila
    latitude:    45.770501
    longitude:   8.083311
  pimentel:
    province_id: CA
    id:          G669
    name:        Pimentel
    latitude:    39.486741
    longitude:   9.066574
  pimonte:
    province_id: NA
    id:          G670
    name:        Pimonte
    latitude:    40.674704
    longitude:   14.510796
  pinarolo_po:
    province_id: PV
    id:          G671
    name:        'Pinarolo Po'
    latitude:    45.070963
    longitude:   9.168463
  pinasca:
    province_id: TO
    id:          G672
    name:        Pinasca
    latitude:    44.942386
    longitude:   7.2275
  pincara:
    province_id: RO
    id:          G673
    name:        Pincara
    latitude:    44.992352
    longitude:   11.609852
  pinerolo:
    province_id: TO
    id:          G674
    name:        Pinerolo
    latitude:    44.884634
    longitude:   7.330867
  pino_d_asti:
    province_id: AT
    id:          G676
    name:        'Pino D''Asti'
    latitude:    45.057475
    longitude:   7.98633
  pino_sulla_sponda_del_lago_maggiore:
    province_id: VA
    id:          G677
    name:        'Pino sulla Sponda del Lago Maggiore'
    latitude:    46.101722
    longitude:   8.739852
  pino_torinese:
    province_id: TO
    id:          G678
    name:        'Pino Torinese'
    latitude:    45.040648
    longitude:   7.778296
  pinzano_al_tagliamento:
    province_id: PN
    id:          G680
    name:        'Pinzano al Tagliamento'
    latitude:    46.183313
    longitude:   12.947171
  pinzolo:
    province_id: TN
    id:          G681
    name:        Pinzolo
    latitude:    46.160026
    longitude:   10.765421
  piobbico:
    province_id: PU
    id:          G682
    name:        Piobbico
    latitude:    43.588759
    longitude:   12.511278
  piobesi_d_alba:
    province_id: CN
    id:          G683
    name:        'Piobesi D''Alba'
    latitude:    44.736278
    longitude:   7.980796
  piobesi_torinese:
    province_id: TO
    id:          G684
    name:        'Piobesi Torinese'
    latitude:    44.933907
    longitude:   7.611259
  piode:
    province_id: VC
    id:          G685
    name:        Piode
    latitude:    45.772056
    longitude:   8.051722
  pioltello:
    province_id: MI
    id:          G686
    name:        Pioltello
    latitude:    45.504018
    longitude:   9.331134
  piombino:
    province_id: LI
    id:          G687
    name:        Piombino
    latitude:    42.925851
    longitude:   10.525432
  piombino_dese:
    province_id: PD
    id:          G688
    name:        'Piombino Dese'
    latitude:    45.606722
    longitude:   11.997981
  pioraco:
    province_id: MC
    id:          G690
    name:        Pioraco
    latitude:    43.18
    longitude:   12.986741
  piossasco:
    province_id: TO
    id:          G691
    name:        Piossasco
    latitude:    44.991084
    longitude:   7.463538
  piova_massaia:
    province_id: AT
    id:          G692
    name:        'Piovà Massaia'
    latitude:    45.053533
    longitude:   8.049164
  piove_di_sacco:
    province_id: PD
    id:          G693
    name:        'Piove di Sacco'
    latitude:    45.296168
    longitude:   12.034827
  piovene_rocchette:
    province_id: VI
    id:          G694
    name:        'Piovene Rocchette'
    latitude:    45.758611
    longitude:   11.435944
  piovera:
    province_id: AL
    id:          G695
    name:        Piovera
    latitude:    44.959556
    longitude:   8.737037
  piozzano:
    province_id: PC
    id:          G696
    name:        Piozzano
    latitude:    44.927278
    longitude:   9.498462
  piozzo:
    province_id: CN
    id:          G697
    name:        Piozzo
    latitude:    44.514852
    longitude:   7.893778
  priverno:
    province_id: LT
    id:          G698
    name:        Priverno
    latitude:    41.473426
    longitude:   13.181716
  piraino:
    province_id: ME
    id:          G699
    name:        Piraino
    latitude:    38.161371
    longitude:   14.862503
  pisa:
    province_id: PI
    id:          G702
    name:        Pisa
    latitude:    43.716135
    longitude:   10.396602
  pisano:
    province_id: NO
    id:          G703
    name:        Pisano
    latitude:    45.793558
    longitude:   8.511488
  pisoniano:
    province_id: RM
    id:          G704
    name:        Pisoniano
    latitude:    41.906527
    longitude:   12.959898
  piscina:
    province_id: TO
    id:          G705
    name:        Piscina
    latitude:    44.91987
    longitude:   7.426407
  pisciotta:
    province_id: SA
    id:          G707
    name:        Pisciotta
    latitude:    40.10899
    longitude:   15.23355
  pisogne:
    province_id: BS
    id:          G710
    name:        Pisogne
    latitude:    45.80464
    longitude:   10.108566
  pisticci:
    province_id: MT
    id:          G712
    name:        Pisticci
    latitude:    40.391715
    longitude:   16.554572
  pistoia:
    province_id: PT
    id:          G713
    name:        Pistoia
    latitude:    43.932155
    longitude:   10.918523
  piteglio:
    province_id: PT
    id:          G715
    name:        Piteglio
    latitude:    44.027879
    longitude:   10.764906
  pitigliano:
    province_id: GR
    id:          G716
    name:        Pitigliano
    latitude:    42.635963
    longitude:   11.674537
  piubega:
    province_id: MN
    id:          G717
    name:        Piubega
    latitude:    45.228759
    longitude:   10.535315
  piuro:
    province_id: SO
    id:          G718
    name:        Piuro
    latitude:    46.330454
    longitude:   9.42173
  piverone:
    province_id: TO
    id:          G719
    name:        Piverone
    latitude:    45.44737
    longitude:   8.006889
  pizzale:
    province_id: PV
    id:          G720
    name:        Pizzale
    latitude:    45.036527
    longitude:   9.048259
  pizzighettone:
    province_id: CR
    id:          G721
    name:        Pizzighettone
    latitude:    45.19
    longitude:   9.790944
  pizzo:
    province_id: VV
    id:          G722
    name:        Pizzo
    latitude:    38.735776
    longitude:   16.164259
  pizzoferrato:
    province_id: CH
    id:          G724
    name:        Pizzoferrato
    latitude:    41.922518
    longitude:   14.236741
  pizzoli:
    province_id: AQ
    id:          G726
    name:        Pizzoli
    latitude:    42.432251
    longitude:   13.312784
  pizzone:
    province_id: IS
    id:          G727
    name:        Pizzone
    latitude:    41.667264
    longitude:   14.034297
  pizzoni:
    province_id: VV
    id:          G728
    name:        Pizzoni
    latitude:    38.622754
    longitude:   16.250461
  placanica:
    province_id: RC
    id:          G729
    name:        Placanica
    latitude:    38.416548
    longitude:   16.447229
  plataci:
    province_id: CS
    id:          G733
    name:        Plataci
    latitude:    39.899343
    longitude:   16.433734
  platania:
    province_id: CZ
    id:          G734
    name:        Platania
    latitude:    39.006516
    longitude:   16.320967
  plati:
    province_id: RC
    id:          G735
    name:        Platì
    latitude:    38.221111
    longitude:   16.047352
  taipana:
    province_id: UD
    id:          G736
    name:        Taipana
    latitude:    46.249556
    longitude:   13.342056
  plesio:
    province_id: CO
    id:          G737
    name:        Plesio
    latitude:    46.051832
    longitude:   9.23093
  ploaghe:
    province_id: SS
    id:          G740
    name:        Ploaghe
    latitude:    40.665315
    longitude:   8.742815
  plodio:
    province_id: SV
    id:          G741
    name:        Plodio
    latitude:    44.356783
    longitude:   8.243333
  pocapaglia:
    province_id: CN
    id:          G742
    name:        Pocapaglia
    latitude:    44.716259
    longitude:   7.884074
  pocenia:
    province_id: UD
    id:          G743
    name:        Pocenia
    latitude:    45.836407
    longitude:   13.101889
  podenzana:
    province_id: MS
    id:          G746
    name:        Podenzana
    latitude:    44.20737
    longitude:   9.943148
  podenzano:
    province_id: PC
    id:          G747
    name:        Podenzano
    latitude:    44.957352
    longitude:   9.686111
  pofi:
    province_id: FR
    id:          G749
    name:        Pofi
    latitude:    41.566407
    longitude:   13.415648
  poggiardo:
    province_id: LE
    id:          G751
    name:        Poggiardo
    latitude:    40.054964
    longitude:   18.377096
  poggibonsi:
    province_id: SI
    id:          G752
    name:        Poggibonsi
    latitude:    43.473444
    longitude:   11.146741
  poggio_rusco:
    province_id: MN
    id:          G753
    name:        'Poggio Rusco'
    latitude:    44.975963
    longitude:   11.11987
  poggio_a_caiano:
    province_id: PO
    id:          G754
    name:        'Poggio a Caiano'
    latitude:    43.814704
    longitude:   11.051722
  poggio_berni:
    province_id: RN
    id:          G755
    name:        'Poggio Berni'
    latitude:    44.035104
    longitude:   12.421165
  poggio_bustone:
    province_id: RI
    id:          G756
    name:        'Poggio Bustone'
    latitude:    42.502144
    longitude:   12.886991
  poggio_catino:
    province_id: RI
    id:          G757
    name:        'Poggio Catino'
    latitude:    42.2956
    longitude:   12.69201
  poggiodomo:
    province_id: PG
    id:          G758
    name:        Poggiodomo
    latitude:    42.711661
    longitude:   12.932893
  poggiofiorito:
    province_id: CH
    id:          G760
    name:        Poggiofiorito
    latitude:    42.255944
    longitude:   14.323296
  poggio_imperiale:
    province_id: FG
    id:          G761
    name:        'Poggio Imperiale'
    latitude:    41.826111
    longitude:   15.366278
  poggiomarino:
    province_id: NA
    id:          G762
    name:        Poggiomarino
    latitude:    40.804241
    longitude:   14.540018
  poggio_mirteto:
    province_id: RI
    id:          G763
    name:        'Poggio Mirteto'
    latitude:    42.267204
    longitude:   12.688759
  poggio_moiano:
    province_id: RI
    id:          G764
    name:        'Poggio Moiano'
    latitude:    42.203778
    longitude:   12.880315
  poggio_nativo:
    province_id: RI
    id:          G765
    name:        'Poggio Nativo'
    latitude:    42.214306
    longitude:   12.793615
  poggio_picenze:
    province_id: AQ
    id:          G766
    name:        'Poggio Picenze'
    latitude:    42.321741
    longitude:   13.542037
  poggioreale:
    province_id: TP
    id:          G767
    name:        Poggioreale
    latitude:    37.765167
    longitude:   13.036889
  poggio_renatico:
    province_id: FE
    id:          G768
    name:        'Poggio Renatico'
    latitude:    44.765221
    longitude:   11.487318
  poggiorsini:
    province_id: BA
    id:          G769
    name:        Poggiorsini
    latitude:    40.91813
    longitude:   16.25563
  poggio_san_lorenzo:
    province_id: RI
    id:          G770
    name:        'Poggio San Lorenzo'
    latitude:    42.252955
    longitude:   12.845236
  poggio_san_marcello:
    province_id: AN
    id:          G771
    name:        'Poggio San Marcello'
    latitude:    43.51104
    longitude:   13.075205
  pogliano_milanese:
    province_id: MI
    id:          G772
    name:        'Pogliano Milanese'
    latitude:    45.536475
    longitude:   8.989437
  pognana_lario:
    province_id: CO
    id:          G773
    name:        'Pognana Lario'
    latitude:    45.879457
    longitude:   9.158652
  pognano:
    province_id: BG
    id:          G774
    name:        Pognano
    latitude:    45.587352
    longitude:   9.641111
  pogno:
    province_id: NO
    id:          G775
    name:        Pogno
    latitude:    45.756574
    longitude:   8.385796
  poiana_maggiore:
    province_id: VI
    id:          G776
    name:        'Poiana Maggiore'
    latitude:    45.291426
    longitude:   11.503611
  poirino:
    province_id: TO
    id:          G777
    name:        Poirino
    latitude:    44.921889
    longitude:   7.848148
  polaveno:
    province_id: BS
    id:          G779
    name:        Polaveno
    latitude:    45.662518
    longitude:   10.125
  polcenigo:
    province_id: PN
    id:          G780
    name:        Polcenigo
    latitude:    46.036574
    longitude:   12.492204
  polesella:
    province_id: RO
    id:          G782
    name:        Polesella
    latitude:    44.963463
    longitude:   11.753926
  polesine_parmense:
    province_id: PR
    id:          G783
    name:        'Polesine Parmense'
    latitude:    45.01737
    longitude:   10.088463
  poli:
    province_id: RM
    id:          G784
    name:        Poli
    latitude:    41.889852
    longitude:   12.892981
  polia:
    province_id: VV
    id:          G785
    name:        Polia
    latitude:    38.751904
    longitude:   16.312495
  policoro:
    province_id: MT
    id:          G786
    name:        Policoro
    latitude:    40.212968
    longitude:   16.678339
  polignano_a_mare:
    province_id: BA
    id:          G787
    name:        'Polignano a Mare'
    latitude:    40.997055
    longitude:   17.216722
  san_pietro_in_cerro:
    province_id: PC
    id:          G788
    name:        'San Pietro in Cerro'
    latitude:    45.021425
    longitude:   9.948652
  polinago:
    province_id: MO
    id:          G789
    name:        Polinago
    latitude:    44.345796
    longitude:   10.724537
  polino:
    province_id: TR
    id:          G790
    name:        Polino
    latitude:    42.585167
    longitude:   12.842838
  polistena:
    province_id: RC
    id:          G791
    name:        Polistena
    latitude:    38.405686
    longitude:   16.072943
  polizzi_generosa:
    province_id: PA
    id:          G792
    name:        'Polizzi Generosa'
    latitude:    37.812369
    longitude:   14.000197
  polla:
    province_id: SA
    id:          G793
    name:        Polla
    latitude:    40.51813
    longitude:   15.498926
  pollein:
    province_id: AO
    id:          G794
    name:        Pollein
    latitude:    45.728093
    longitude:   7.353752
  pollena_trocchia:
    province_id: NA
    id:          G795
    name:        'Pollena Trocchia'
    latitude:    40.856354
    longitude:   14.382445
  pollica:
    province_id: SA
    id:          G796
    name:        Pollica
    latitude:    40.19131
    longitude:   15.057482
  pollina:
    province_id: PA
    id:          G797
    name:        Pollina
    latitude:    37.993389
    longitude:   14.143326
  pollone:
    province_id: BI
    id:          G798
    name:        Pollone
    latitude:    45.580796
    longitude:   8.007037
  pollutri:
    province_id: CH
    id:          G799
    name:        Pollutri
    latitude:    42.139196
    longitude:   14.592868
  polonghera:
    province_id: CN
    id:          G800
    name:        Polonghera
    latitude:    44.803463
    longitude:   7.596889
  polpenazze_del_garda:
    province_id: BS
    id:          G801
    name:        'Polpenazze del Garda'
    latitude:    45.552204
    longitude:   10.505944
  polverara:
    province_id: PD
    id:          G802
    name:        Polverara
    latitude:    45.310315
    longitude:   11.957037
  polverigi:
    province_id: AN
    id:          G803
    name:        Polverigi
    latitude:    43.526209
    longitude:   13.392876
  pomarance:
    province_id: PI
    id:          G804
    name:        Pomarance
    latitude:    43.300018
    longitude:   10.873926
  pomaretto:
    province_id: TO
    id:          G805
    name:        Pomaretto
    latitude:    44.955961
    longitude:   7.182911
  pomarico:
    province_id: MT
    id:          G806
    name:        Pomarico
    latitude:    40.515597
    longitude:   16.548755
  pomaro_monferrato:
    province_id: AL
    id:          G807
    name:        'Pomaro Monferrato'
    latitude:    45.0635
    longitude:   8.596761
  pomarolo:
    province_id: TN
    id:          G808
    name:        Pomarolo
    latitude:    45.929074
    longitude:   11.044241
  pombia:
    province_id: NO
    id:          G809
    name:        Pombia
    latitude:    45.651999
    longitude:   8.633465
  pomezia:
    province_id: RM
    id:          G811
    name:        Pomezia
    latitude:    41.669293
    longitude:   12.501793
  pomigliano_d_arco:
    province_id: NA
    id:          G812
    name:        'Pomigliano D''Arco'
    latitude:    40.908907
    longitude:   14.387204
  pompei:
    province_id: NA
    id:          G813
    name:        Pompei
    latitude:    40.749182
    longitude:   14.500738
  pompeiana:
    province_id: IM
    id:          G814
    name:        Pompeiana
    latitude:    43.85487
    longitude:   7.890944
  pompiano:
    province_id: BS
    id:          G815
    name:        Pompiano
    latitude:    45.432981
    longitude:   9.990315
  pomponesco:
    province_id: MN
    id:          G816
    name:        Pomponesco
    latitude:    44.928333
    longitude:   10.592197
  pompu:
    province_id: OR
    id:          G817
    name:        Pompu
    latitude:    39.72563
    longitude:   8.796407
  poncarale:
    province_id: BS
    id:          G818
    name:        Poncarale
    latitude:    45.462056
    longitude:   10.177815
  ponderano:
    province_id: BI
    id:          G820
    name:        Ponderano
    latitude:    45.53752
    longitude:   8.054835
  ponna:
    province_id: CO
    id:          G821
    name:        Ponna
    latitude:    45.990098
    longitude:   9.093931
  ponsacco:
    province_id: PI
    id:          G822
    name:        Ponsacco
    latitude:    43.624852
    longitude:   10.630167
  ponso:
    province_id: PD
    id:          G823
    name:        Ponso
    latitude:    45.192619
    longitude:   11.58707
  pontassieve:
    province_id: FI
    id:          G825
    name:        Pontassieve
    latitude:    43.774638
    longitude:   11.440445
  pont_canavese:
    province_id: TO
    id:          G826
    name:        'Pont Canavese'
    latitude:    45.423926
    longitude:   7.597352
  ponte:
    province_id: BN
    id:          G827
    name:        Ponte
    latitude:    41.213973
    longitude:   14.69354
  ponte_in_valtellina:
    province_id: SO
    id:          G829
    name:        'Ponte in Valtellina'
    latitude:    46.175944
    longitude:   9.978907
  ponte_gardena:
    province_id: BZ
    id:          G830
    name:        'Ponte Gardena'
    latitude:    46.598989
    longitude:   11.528664
  pontebba:
    province_id: UD
    id:          G831
    name:        Pontebba
    latitude:    46.504354
    longitude:   13.305738
  ponte_buggianese:
    province_id: PT
    id:          G833
    name:        'Ponte Buggianese'
    latitude:    43.843926
    longitude:   10.748778
  pontecagnano_faiano:
    province_id: SA
    id:          G834
    name:        'Pontecagnano Faiano'
    latitude:    40.644582
    longitude:   14.873521
  pontecchio_polesine:
    province_id: RO
    id:          G836
    name:        'Pontecchio Polesine'
    latitude:    45.020796
    longitude:   11.814852
  pontechianale:
    province_id: CN
    id:          G837
    name:        Pontechianale
    latitude:    44.622368
    longitude:   7.031284
  pontecorvo:
    province_id: FR
    id:          G838
    name:        Pontecorvo
    latitude:    41.45692
    longitude:   13.666401
  pontecurone:
    province_id: AL
    id:          G839
    name:        Pontecurone
    latitude:    44.961278
    longitude:   8.935018
  pontedassio:
    province_id: IM
    id:          G840
    name:        Pontedassio
    latitude:    43.941426
    longitude:   8.015018
  ponte_dell_olio:
    province_id: PC
    id:          G842
    name:        'Ponte dell''Olio'
    latitude:    44.867841
    longitude:   9.642425
  pontedera:
    province_id: PI
    id:          G843
    name:        Pontedera
    latitude:    43.662667
    longitude:   10.632833
  ponte_di_legno:
    province_id: BS
    id:          G844
    name:        'Ponte di Legno'
    latitude:    46.259529
    longitude:   10.509851
  ponte_di_piave:
    province_id: TV
    id:          G846
    name:        'Ponte di Piave'
    latitude:    45.714745
    longitude:   12.464508
  ponte_lambro:
    province_id: CO
    id:          G847
    name:        'Ponte Lambro'
    latitude:    45.8275
    longitude:   9.226574
  pontelandolfo:
    province_id: BN
    id:          G848
    name:        Pontelandolfo
    latitude:    41.287983
    longitude:   14.69074
  pontelatone:
    province_id: CE
    id:          G849
    name:        Pontelatone
    latitude:    41.194146
    longitude:   14.251543
  pontelongo:
    province_id: PD
    id:          G850
    name:        Pontelongo
    latitude:    45.248148
    longitude:   12.025796
  ponte_nizza:
    province_id: PV
    id:          G851
    name:        'Ponte Nizza'
    latitude:    44.853187
    longitude:   9.097642
  pontenure:
    province_id: PC
    id:          G852
    name:        Pontenure
    latitude:    45.000363
    longitude:   9.787306
  ponteranica:
    province_id: BG
    id:          G853
    name:        Ponteranica
    latitude:    45.733444
    longitude:   9.652815
  pont_saint_martin:
    province_id: AO
    id:          G854
    name:        Pont-Saint-Martin
    latitude:    45.598441
    longitude:   7.799431
  ponte_san_nicolo:
    province_id: PD
    id:          G855
    name:        'Ponte San Nicolò'
    latitude:    45.363986
    longitude:   11.936394
  ponte_san_pietro:
    province_id: BG
    id:          G856
    name:        'Ponte San Pietro'
    latitude:    45.69737
    longitude:   9.585944
  pontestura:
    province_id: AL
    id:          G858
    name:        Pontestura
    latitude:    45.143444
    longitude:   8.334389
  pontevico:
    province_id: BS
    id:          G859
    name:        Pontevico
    latitude:    45.271646
    longitude:   10.085861
  pontey:
    province_id: AO
    id:          G860
    name:        Pontey
    latitude:    45.738823
    longitude:   7.587824
  ponti:
    province_id: AL
    id:          G861
    name:        Ponti
    latitude:    44.62943
    longitude:   8.365344
  ponti_sul_mincio:
    province_id: MN
    id:          G862
    name:        'Ponti sul Mincio'
    latitude:    45.413148
    longitude:   10.686278
  pontida:
    province_id: BG
    id:          G864
    name:        Pontida
    latitude:    45.733247
    longitude:   9.498343
  pontinia:
    province_id: LT
    id:          G865
    name:        Pontinia
    latitude:    41.407979
    longitude:   13.044464
  pontinvrea:
    province_id: SV
    id:          G866
    name:        Pontinvrea
    latitude:    44.444443
    longitude:   8.435226
  pontirolo_nuovo:
    province_id: BG
    id:          G867
    name:        'Pontirolo Nuovo'
    latitude:    45.570167
    longitude:   9.570481
  pontoglio:
    province_id: BS
    id:          G869
    name:        Pontoglio
    latitude:    45.570819
    longitude:   9.854172
  pontremoli:
    province_id: MS
    id:          G870
    name:        Pontremoli
    latitude:    44.375556
    longitude:   9.878302
  ponza:
    province_id: LT
    id:          G871
    name:        Ponza
    latitude:    40.894514
    longitude:   12.966368
  ponzano_monferrato:
    province_id: AL
    id:          G872
    name:        'Ponzano Monferrato'
    latitude:    45.085467
    longitude:   8.263226
  ponzano_di_fermo:
    province_id: AP
    id:          G873
    name:        'Ponzano di Fermo'
    latitude:    43.103009
    longitude:   13.658868
  ponzano_romano:
    province_id: RM
    id:          G874
    name:        'Ponzano Romano'
    latitude:    42.257981
    longitude:   12.571407
  ponzano_veneto:
    province_id: TV
    id:          G875
    name:        'Ponzano Veneto'
    latitude:    45.715701
    longitude:   12.202693
  ponzone:
    province_id: AL
    id:          G877
    name:        Ponzone
    latitude:    44.589241
    longitude:   8.460481
  popoli:
    province_id: PE
    id:          G878
    name:        Popoli
    latitude:    42.170944
    longitude:   13.831722
  poppi:
    province_id: AR
    id:          G879
    name:        Poppi
    latitude:    43.73277
    longitude:   11.764026
  porano:
    province_id: TR
    id:          G881
    name:        Porano
    latitude:    42.684119
    longitude:   12.099051
  porcari:
    province_id: LU
    id:          G882
    name:        Porcari
    latitude:    43.845167
    longitude:   10.617518
  porcia:
    province_id: PN
    id:          G886
    name:        Porcia
    latitude:    45.957432
    longitude:   12.610597
  stella_cilento:
    province_id: SA
    id:          G887
    name:        'Stella Cilento'
    latitude:    40.232815
    longitude:   15.093759
  pordenone:
    province_id: PN
    id:          G888
    name:        Pordenone
    latitude:    45.962652
    longitude:   12.655044
  porlezza:
    province_id: CO
    id:          G889
    name:        Porlezza
    latitude:    46.039389
    longitude:   9.130944
  pornassio:
    province_id: IM
    id:          G890
    name:        Pornassio
    latitude:    44.070032
    longitude:   7.870818
  porpetto:
    province_id: UD
    id:          G891
    name:        Porpetto
    latitude:    45.859241
    longitude:   13.218926
  portacomaro:
    province_id: AT
    id:          G894
    name:        Portacomaro
    latitude:    44.958178
    longitude:   8.257616
  portalbera:
    province_id: PV
    id:          G895
    name:        Portalbera
    latitude:    45.098611
    longitude:   9.320018
  porte:
    province_id: TO
    id:          G900
    name:        Porte
    latitude:    44.88786
    longitude:   7.270339
  portici:
    province_id: NA
    id:          G902
    name:        Portici
    latitude:    40.814051
    longitude:   14.339019
  portico_di_caserta:
    province_id: CE
    id:          G903
    name:        'Portico di Caserta'
    latitude:    41.057502
    longitude:   14.280308
  portico_e_san_benedetto:
    province_id: FC
    id:          G904
    name:        'Portico e San Benedetto'
    latitude:    44.026523
    longitude:   11.781519
  portigliola:
    province_id: RC
    id:          G905
    name:        Portigliola
    latitude:    38.230162
    longitude:   16.200971
  porto_ceresio:
    province_id: VA
    id:          G906
    name:        'Porto Ceresio'
    latitude:    45.902204
    longitude:   8.900929
  porto_valtravaglia:
    province_id: VA
    id:          G907
    name:        'Porto Valtravaglia'
    latitude:    45.960333
    longitude:   8.682833
  portobuffole:
    province_id: TV
    id:          G909
    name:        Portobuffolè
    latitude:    45.856236
    longitude:   12.537733
  portocannone:
    province_id: CB
    id:          G910
    name:        Portocannone
    latitude:    41.917056
    longitude:   15.008463
  portoferraio:
    province_id: LI
    id:          G912
    name:        Portoferraio
    latitude:    42.812511
    longitude:   10.315622
  portofino:
    province_id: GE
    id:          G913
    name:        Portofino
    latitude:    44.303961
    longitude:   9.207772
  portogruaro:
    province_id: VE
    id:          G914
    name:        Portogruaro
    latitude:    45.77503
    longitude:   12.837829
  portomaggiore:
    province_id: FE
    id:          G916
    name:        Portomaggiore
    latitude:    44.699555
    longitude:   11.807815
  porto_mantovano:
    province_id: MN
    id:          G917
    name:        'Porto Mantovano'
    latitude:    45.189461
    longitude:   10.789929
  porto_recanati:
    province_id: MC
    id:          G919
    name:        'Porto Recanati'
    latitude:    43.437518
    longitude:   13.66237
  porto_san_giorgio:
    province_id: AP
    id:          G920
    name:        'Porto San Giorgio'
    latitude:    43.183778
    longitude:   13.794389
  porto_sant_elpidio:
    province_id: AP
    id:          G921
    name:        'Porto Sant''Elpidio'
    latitude:    43.259224
    longitude:   13.759217
  portoscuso:
    province_id: CI
    id:          G922
    name:        Portoscuso
    latitude:    39.205002
    longitude:   8.380038
  porto_tolle:
    province_id: RO
    id:          G923
    name:        'Porto Tolle'
    latitude:    44.950146
    longitude:   12.321852
  porto_torres:
    province_id: SS
    id:          G924
    name:        'Porto Torres'
    latitude:    40.834537
    longitude:   8.41
  portovenere:
    province_id: SP
    id:          G925
    name:        Portovenere
    latitude:    44.051936
    longitude:   9.835308
  porto_viro:
    province_id: RO
    id:          G926
    name:        'Porto Viro'
    latitude:    45.024941
    longitude:   12.220032
  portula:
    province_id: BI
    id:          G927
    name:        Portula
    latitude:    45.674774
    longitude:   8.179459
  posada:
    province_id: NU
    id:          G929
    name:        Posada
    latitude:    40.633148
    longitude:   9.717518
  posina:
    province_id: VI
    id:          G931
    name:        Posina
    latitude:    45.79168
    longitude:   11.263207
  positano:
    province_id: SA
    id:          G932
    name:        Positano
    latitude:    40.62987
    longitude:   14.486278
  possagno:
    province_id: TV
    id:          G933
    name:        Possagno
    latitude:    45.853444
    longitude:   11.874241
  posta:
    province_id: RI
    id:          G934
    name:        Posta
    latitude:    42.526503
    longitude:   13.098278
  posta_fibreno:
    province_id: FR
    id:          G935
    name:        'Posta Fibreno'
    latitude:    41.694377
    longitude:   13.696867
  postal:
    province_id: BZ
    id:          G936
    name:        Postal
    latitude:    46.609863
    longitude:   11.192865
  postalesio:
    province_id: SO
    id:          G937
    name:        Postalesio
    latitude:    46.174683
    longitude:   9.776268
  postiglione:
    province_id: SA
    id:          G939
    name:        Postiglione
    latitude:    40.56
    longitude:   15.233296
  postua:
    province_id: VC
    id:          G940
    name:        Postua
    latitude:    45.713926
    longitude:   8.231722
  potenza:
    province_id: PZ
    id:          G942
    name:        Potenza
    latitude:    40.637242
    longitude:   15.802221
  pove_del_grappa:
    province_id: VI
    id:          G943
    name:        'Pove del Grappa'
    latitude:    45.799241
    longitude:   11.730944
  povegliano:
    province_id: TV
    id:          G944
    name:        Povegliano
    latitude:    45.761094
    longitude:   12.203768
  povegliano_veronese:
    province_id: VR
    id:          G945
    name:        'Povegliano Veronese'
    latitude:    45.350481
    longitude:   10.882204
  poviglio:
    province_id: RE
    id:          G947
    name:        Poviglio
    latitude:    44.884512
    longitude:   10.582972
  povoletto:
    province_id: UD
    id:          G949
    name:        Povoletto
    latitude:    46.113145
    longitude:   13.280656
  pozza_di_fassa:
    province_id: TN
    id:          G950
    name:        'Pozza di Fassa'
    latitude:    46.429852
    longitude:   11.691889
  pozzaglia_sabina:
    province_id: RI
    id:          G951
    name:        'Pozzaglia Sabina'
    latitude:    42.159704
    longitude:   12.965333
  pozzallo:
    province_id: RG
    id:          G953
    name:        Pozzallo
    latitude:    36.726101
    longitude:   14.845588
  pozzilli:
    province_id: IS
    id:          G954
    name:        Pozzilli
    latitude:    41.512518
    longitude:   14.063444
  pozzo_d_adda:
    province_id: MI
    id:          G955
    name:        'Pozzo D''Adda'
    latitude:    45.575916
    longitude:   9.501057
  pozzoleone:
    province_id: VI
    id:          G957
    name:        Pozzoleone
    latitude:    45.6489
    longitude:   11.679247
  pozzolengo:
    province_id: BS
    id:          G959
    name:        Pozzolengo
    latitude:    45.40318
    longitude:   10.627185
  pozzol_groppo:
    province_id: AL
    id:          G960
    name:        'Pozzol Groppo'
    latitude:    44.87756
    longitude:   9.029237
  pozzolo_formigaro:
    province_id: AL
    id:          G961
    name:        'Pozzolo Formigaro'
    latitude:    44.796278
    longitude:   8.785944
  pozzomaggiore:
    province_id: SS
    id:          G962
    name:        Pozzomaggiore
    latitude:    40.39573
    longitude:   8.66177
  pozzonovo:
    province_id: PD
    id:          G963
    name:        Pozzonovo
    latitude:    45.19737
    longitude:   11.792833
  pozzuoli:
    province_id: NA
    id:          G964
    name:        Pozzuoli
    latitude:    40.823745
    longitude:   14.121622
  pozzuolo_martesana:
    province_id: MI
    id:          G965
    name:        'Pozzuolo Martesana'
    latitude:    45.513475
    longitude:   9.452689
  pozzuolo_del_friuli:
    province_id: UD
    id:          G966
    name:        'Pozzuolo del Friuli'
    latitude:    45.987056
    longitude:   13.196111
  pradalunga:
    province_id: BG
    id:          G968
    name:        Pradalunga
    latitude:    45.746889
    longitude:   9.783463
  pradamano:
    province_id: UD
    id:          G969
    name:        Pradamano
    latitude:    46.03487
    longitude:   13.303778
  pradleves:
    province_id: CN
    id:          G970
    name:        Pradleves
    latitude:    44.41878
    longitude:   7.28137
  sasso_marconi:
    province_id: BO
    id:          G972
    name:        'Sasso Marconi'
    latitude:    44.400481
    longitude:   11.250648
  pragelato:
    province_id: TO
    id:          G973
    name:        Pragelato
    latitude:    45.015526
    longitude:   6.942049
  pray:
    province_id: BI
    id:          G974
    name:        Pray
    latitude:    45.675379
    longitude:   8.205397
  praia_a_mare:
    province_id: CS
    id:          G975
    name:        'Praia a Mare'
    latitude:    39.900125
    longitude:   15.778928
  praiano:
    province_id: SA
    id:          G976
    name:        Praiano
    latitude:    40.611762
    longitude:   14.52397
  pralboino:
    province_id: BS
    id:          G977
    name:        Pralboino
    latitude:    45.26711
    longitude:   10.218326
  prali:
    province_id: TO
    id:          G978
    name:        Prali
    latitude:    44.889048
    longitude:   7.048747
  pralormo:
    province_id: TO
    id:          G979
    name:        Pralormo
    latitude:    44.860796
    longitude:   7.9025
  pralungo:
    province_id: BI
    id:          G980
    name:        Pralungo
    latitude:    45.591278
    longitude:   8.039704
  pramaggiore:
    province_id: VE
    id:          G981
    name:        Pramaggiore
    latitude:    45.815315
    longitude:   12.737204
  pramollo:
    province_id: TO
    id:          G982
    name:        Pramollo
    latitude:    44.904048
    longitude:   7.214573
  prarolo:
    province_id: VC
    id:          G985
    name:        Prarolo
    latitude:    45.28096
    longitude:   8.477667
  prarostino:
    province_id: TO
    id:          G986
    name:        Prarostino
    latitude:    44.86663
    longitude:   7.268449
  prasco:
    province_id: AL
    id:          G987
    name:        Prasco
    latitude:    44.639732
    longitude:   8.552413
  prascorsano:
    province_id: TO
    id:          G988
    name:        Prascorsano
    latitude:    45.368759
    longitude:   7.618148
  praso:
    province_id: TN
    id:          G989
    name:        Praso
    latitude:    45.950052
    longitude:   10.637305
  prata_di_principato_ultra:
    province_id: AV
    id:          G990
    name:        'Prata di Principato Ultra'
    latitude:    40.988676
    longitude:   14.838865
  prata_sannita:
    province_id: CE
    id:          G991
    name:        'Prata Sannita'
    latitude:    41.427337
    longitude:   14.199904
  prata_d_ansidonia:
    province_id: AQ
    id:          G992
    name:        'Prata D''Ansidonia'
    latitude:    42.278568
    longitude:   13.606536
  prata_camportaccio:
    province_id: SO
    id:          G993
    name:        'Prata Camportaccio'
    latitude:    46.304215
    longitude:   9.396491
  prata_di_pordenone:
    province_id: PN
    id:          G994
    name:        'Prata di Pordenone'
    latitude:    45.891822
    longitude:   12.596362
  pratella:
    province_id: CE
    id:          G995
    name:        Pratella
    latitude:    41.40563
    longitude:   14.178778
  pratiglione:
    province_id: TO
    id:          G997
    name:        Pratiglione
    latitude:    45.35365
    longitude:   7.5962
  prato:
    province_id: PO
    id:          G999
    name:        Prato
    latitude:    43.879699
    longitude:   11.096312
  prato_sesia:
    province_id: NO
    id:          H001
    name:        'Prato Sesia'
    latitude:    45.647354
    longitude:   8.373833
  prato_carnico:
    province_id: UD
    id:          H002
    name:        'Prato Carnico'
    latitude:    46.521387
    longitude:   12.807956
  prato_allo_stelvio:
    province_id: BZ
    id:          H004
    name:        'Prato allo Stelvio'
    latitude:    46.622324
    longitude:   10.582009
  pratola_serra:
    province_id: AV
    id:          H006
    name:        'Pratola Serra'
    latitude:    40.988158
    longitude:   14.853607
  pratola_peligna:
    province_id: AQ
    id:          H007
    name:        'Pratola Peligna'
    latitude:    42.099389
    longitude:   13.874852
  pratovecchio:
    province_id: AR
    id:          H008
    name:        Pratovecchio
    latitude:    43.787815
    longitude:   11.724537
  pravisdomini:
    province_id: PN
    id:          H010
    name:        Pravisdomini
    latitude:    45.82
    longitude:   12.693148
  prazzo:
    province_id: CN
    id:          H011
    name:        Prazzo
    latitude:    44.483188
    longitude:   7.055972
  samo:
    province_id: RC
    id:          H013
    name:        Samo
    latitude:    38.075375
    longitude:   16.055206
  precenicco:
    province_id: UD
    id:          H014
    name:        Precenicco
    latitude:    45.789852
    longitude:   13.078444
  preci:
    province_id: PG
    id:          H015
    name:        Preci
    latitude:    42.881157
    longitude:   13.038387
  predappio:
    province_id: FC
    id:          H017
    name:        Predappio
    latitude:    44.106333
    longitude:   11.981657
  predazzo:
    province_id: TN
    id:          H018
    name:        Predazzo
    latitude:    46.30987
    longitude:   11.600796
  predoi:
    province_id: BZ
    id:          H019
    name:        Predoi
    latitude:    47.042697
    longitude:   12.106811
  predore:
    province_id: BG
    id:          H020
    name:        Predore
    latitude:    45.681722
    longitude:   10.015481
  predosa:
    province_id: AL
    id:          H021
    name:        Predosa
    latitude:    44.752352
    longitude:   8.656574
  preganziol:
    province_id: TV
    id:          H022
    name:        Preganziol
    latitude:    45.602246
    longitude:   12.235188
  pregnana_milanese:
    province_id: MI
    id:          H026
    name:        'Pregnana Milanese'
    latitude:    45.51521
    longitude:   9.009096
  prela:
    province_id: IM
    id:          H027
    name:        Prelà
    latitude:    43.92659
    longitude:   7.936682
  premana:
    province_id: LC
    id:          H028
    name:        Premana
    latitude:    46.052964
    longitude:   9.420869
  premariacco:
    province_id: UD
    id:          H029
    name:        Premariacco
    latitude:    46.062981
    longitude:   13.397815
  premeno:
    province_id: VB
    id:          H030
    name:        Premeno
    latitude:    45.98
    longitude:   8.598907
  premia:
    province_id: VB
    id:          H033
    name:        Premia
    latitude:    46.267146
    longitude:   8.333928
  premilcuore:
    province_id: FC
    id:          H034
    name:        Premilcuore
    latitude:    43.979311
    longitude:   11.781476
  premolo:
    province_id: BG
    id:          H036
    name:        Premolo
    latitude:    45.871278
    longitude:   9.875796
  premosello_chiovenda:
    province_id: VB
    id:          H037
    name:        Premosello-Chiovenda
    latitude:    46.005167
    longitude:   8.33
  preone:
    province_id: UD
    id:          H038
    name:        Preone
    latitude:    46.394359
    longitude:   12.865733
  preore:
    province_id: TN
    id:          H039
    name:        Preore
    latitude:    46.046879
    longitude:   10.758536
  prepotto:
    province_id: UD
    id:          H040
    name:        Prepotto
    latitude:    46.046741
    longitude:   13.480481
  pre_saint_didier:
    province_id: AO
    id:          H042
    name:        Prè-Saint-Didier
    latitude:    45.764399
    longitude:   6.984858
  preseglie:
    province_id: BS
    id:          H043
    name:        Preseglie
    latitude:    45.669456
    longitude:   10.391879
  presenzano:
    province_id: CE
    id:          H045
    name:        Presenzano
    latitude:    41.376158
    longitude:   14.078069
  presezzo:
    province_id: BG
    id:          H046
    name:        Presezzo
    latitude:    45.693148
    longitude:   9.571407
  presicce:
    province_id: LE
    id:          H047
    name:        Presicce
    latitude:    39.900167
    longitude:   18.2625
  pressana:
    province_id: VR
    id:          H048
    name:        Pressana
    latitude:    45.28543
    longitude:   11.405123
  prestine:
    province_id: BS
    id:          H050
    name:        Prestine
    latitude:    45.929544
    longitude:   10.310632
  pretoro:
    province_id: CH
    id:          H052
    name:        Pretoro
    latitude:    42.218778
    longitude:   14.142833
  prevalle:
    province_id: BS
    id:          H055
    name:        Prevalle
    latitude:    45.552352
    longitude:   10.42313
  prezza:
    province_id: AQ
    id:          H056
    name:        Prezza
    latitude:    42.058199
    longitude:   13.833403
  prezzo:
    province_id: TN
    id:          H057
    name:        Prezzo
    latitude:    45.933346
    longitude:   10.631702
  priero:
    province_id: CN
    id:          H059
    name:        Priero
    latitude:    44.375401
    longitude:   8.095762
  prignano_sulla_secchia:
    province_id: MO
    id:          H061
    name:        'Prignano sulla Secchia'
    latitude:    44.439389
    longitude:   10.692981
  prignano_cilento:
    province_id: SA
    id:          H062
    name:        'Prignano Cilento'
    latitude:    40.330864
    longitude:   15.068344
  primaluna:
    province_id: LC
    id:          H063
    name:        Primaluna
    latitude:    45.98487
    longitude:   9.438759
  priocca:
    province_id: CN
    id:          H068
    name:        Priocca
    latitude:    44.78737
    longitude:   8.065315
  priola:
    province_id: CN
    id:          H069
    name:        Priola
    latitude:    44.244704
    longitude:   8.022352
  prizzi:
    province_id: PA
    id:          H070
    name:        Prizzi
    latitude:    37.722082
    longitude:   13.432755
  proceno:
    province_id: VT
    id:          H071
    name:        Proceno
    latitude:    42.758296
    longitude:   11.83063
  procida:
    province_id: NA
    id:          H072
    name:        Procida
    latitude:    40.76175
    longitude:   14.023405
  propata:
    province_id: GE
    id:          H073
    name:        Propata
    latitude:    44.566741
    longitude:   9.186722
  proserpio:
    province_id: CO
    id:          H074
    name:        Proserpio
    latitude:    45.827754
    longitude:   9.248936
  prossedi:
    province_id: LT
    id:          H076
    name:        Prossedi
    latitude:    41.51737
    longitude:   13.261741
  provaglio_val_sabbia:
    province_id: BS
    id:          H077
    name:        'Provaglio Val Sabbia'
    latitude:    45.689733
    longitude:   10.43417
  provaglio_d_iseo:
    province_id: BS
    id:          H078
    name:        'Provaglio D''Iseo'
    latitude:    45.636426
    longitude:   10.045796
  proves:
    province_id: BZ
    id:          H081
    name:        Proves
    latitude:    46.477732
    longitude:   11.020631
  provvidenti:
    province_id: CB
    id:          H083
    name:        Provvidenti
    latitude:    41.718157
    longitude:   14.823684
  prunetto:
    province_id: CN
    id:          H085
    name:        Prunetto
    latitude:    44.491252
    longitude:   8.14492
  puegnago_del_garda:
    province_id: BS
    id:          H086
    name:        'Puegnago del Garda'
    latitude:    45.567919
    longitude:   10.509815
  puglianello:
    province_id: BN
    id:          H087
    name:        Puglianello
    latitude:    41.224397
    longitude:   14.450612
  pula:
    province_id: CA
    id:          H088
    name:        Pula
    latitude:    39.008611
    longitude:   9.002667
  pulfero:
    province_id: UD
    id:          H089
    name:        Pulfero
    latitude:    46.173907
    longitude:   13.485167
  pulsano:
    province_id: TA
    id:          H090
    name:        Pulsano
    latitude:    40.38313
    longitude:   17.35737
  pumenengo:
    province_id: BG
    id:          H091
    name:        Pumenengo
    latitude:    45.480338
    longitude:   9.870595
  puos_d_alpago:
    province_id: BL
    id:          H092
    name:        'Puos D''Alpago'
    latitude:    46.135963
    longitude:   12.348463
  pusiano:
    province_id: CO
    id:          H094
    name:        Pusiano
    latitude:    45.814852
    longitude:   9.282981
  putifigari:
    province_id: SS
    id:          H095
    name:        Putifigari
    latitude:    40.563463
    longitude:   8.462204
  putignano:
    province_id: BA
    id:          H096
    name:        Putignano
    latitude:    40.852815
    longitude:   17.122204
  quadrelle:
    province_id: AV
    id:          H097
    name:        Quadrelle
    latitude:    40.949825
    longitude:   14.6407
  quadri:
    province_id: CH
    id:          H098
    name:        Quadri
    latitude:    41.925944
    longitude:   14.289241
  quagliuzzo:
    province_id: TO
    id:          H100
    name:        Quagliuzzo
    latitude:    45.427836
    longitude:   7.783439
  qualiano:
    province_id: NA
    id:          H101
    name:        Qualiano
    latitude:    40.918505
    longitude:   14.153121
  quaranti:
    province_id: AT
    id:          H102
    name:        Quaranti
    latitude:    44.750974
    longitude:   8.449992
  quaregna:
    province_id: BI
    id:          H103
    name:        Quaregna
    latitude:    45.582204
    longitude:   8.164852
  quargnento:
    province_id: AL
    id:          H104
    name:        Quargnento
    latitude:    44.945944
    longitude:   8.48813
  quarna_sopra:
