City:
  City_daiano:
    Province:  ProvinceTN
    id:        D243
    name:      Daiano
    latitude:  46.3025
    longitude: 11.450167
  City_dairago:
    Province:  ProvinceMI
    id:        D244
    name:      Dairago
    latitude:  45.565795
    longitude: 8.862543
  City_dalmine:
    Province:  ProvinceBG
    id:        D245
    name:      Dalmine
    latitude:  45.650783
    longitude: 9.603034
  City_dambel:
    Province:  ProvinceTN
    id:        D246
    name:      Dambel
    latitude:  46.405196
    longitude: 11.093944
  City_danta_di_cadore:
    Province:  ProvinceBL
    id:        D247
    name:      'Danta di Cadore'
    latitude:  46.567059
    longitude: 12.520797
  City_daone:
    Province:  ProvinceTN
    id:        D248
    name:      Daone
    latitude:  45.947198
    longitude: 10.618674
  City_dare:
    Province:  ProvinceTN
    id:        D250
    name:      Darè
    latitude:  46.075311
    longitude: 10.7185
  City_darfo_boario_terme:
    Province:  ProvinceBS
    id:        D251
    name:      'Darfo Boario Terme'
    latitude:  45.880146
    longitude: 10.182556
  City_dasa:
    Province:  ProvinceVV
    id:        D253
    name:      Dasà
    latitude:  38.565648
    longitude: 16.196217
  City_davagna:
    Province:  ProvinceGE
    id:        D255
    name:      Davagna
    latitude:  44.466889
    longitude: 9.087833
  City_daverio:
    Province:  ProvinceVA
    id:        D256
    name:      Daverio
    latitude:  45.778503
    longitude: 8.771502
  City_davoli:
    Province:  ProvinceCZ
    id:        D257
    name:      Davoli
    latitude:  38.648444
    longitude: 16.487037
  City_dazio:
    Province:  ProvinceSO
    id:        D258
    name:      Dazio
    latitude:  46.16237
    longitude: 9.601722
  City_decimomannu:
    Province:  ProvinceCA
    id:        D259
    name:      Decimomannu
    latitude:  39.312815
    longitude: 8.969852
  City_decimoputzu:
    Province:  ProvinceCA
    id:        D260
    name:      Decimoputzu
    latitude:  39.336426
    longitude: 8.916259
  City_decollatura:
    Province:  ProvinceCZ
    id:        D261
    name:      Decollatura
    latitude:  39.048926
    longitude: 16.355944
  City_dego:
    Province:  ProvinceSV
    id:        D264
    name:      Dego
    latitude:  44.444074
    longitude: 8.307037
  City_deiva_marina:
    Province:  ProvinceSP
    id:        D265
    name:      'Deiva Marina'
    latitude:  44.220018
    longitude: 9.52
  City_delebio:
    Province:  ProvinceSO
    id:        D266
    name:      Delebio
    latitude:  46.137037
    longitude: 9.461722
  City_delia:
    Province:  ProvinceCL
    id:        D267
    name:      Delia
    latitude:  37.357306
    longitude: 13.923638
  City_delianuova:
    Province:  ProvinceRC
    id:        D268
    name:      Delianuova
    latitude:  38.235401
    longitude: 15.917375
  City_deliceto:
    Province:  ProvinceFG
    id:        D269
    name:      Deliceto
    latitude:  41.222498
    longitude: 15.385347
  City_dello:
    Province:  ProvinceBS
    id:        D270
    name:      Dello
    latitude:  45.421203
    longitude: 10.078302
  City_demonte:
    Province:  ProvinceCN
    id:        D271
    name:      Demonte
    latitude:  44.315114
    longitude: 7.295374
  City_denice:
    Province:  ProvinceAL
    id:        D272
    name:      Denice
    latitude:  44.59964
    longitude: 8.333285
  City_denno:
    Province:  ProvinceTN
    id:        D273
    name:      Denno
    latitude:  46.273638
    longitude: 11.04878
  City_dernice:
    Province:  ProvinceAL
    id:        D277
    name:      Dernice
    latitude:  44.7675
    longitude: 9.051407
  City_derovere:
    Province:  ProvinceCR
    id:        D278
    name:      Derovere
    latitude:  45.110944
    longitude: 10.249074
  City_deruta:
    Province:  ProvincePG
    id:        D279
    name:      Deruta
    latitude:  42.981407
    longitude: 12.416111
  City_dervio:
    Province:  ProvinceLC
    id:        D280
    name:      Dervio
    latitude:  46.077053
    longitude: 9.305787
  City_desana:
    Province:  ProvinceVC
    id:        D281
    name:      Desana
    latitude:  45.27063
    longitude: 8.360963
  City_desenzano_del_garda:
    Province:  ProvinceBS
    id:        D284
    name:      'Desenzano del Garda'
    latitude:  45.468881
    longitude: 10.534958
  City_desio:
    Province:  ProvinceMI
    id:        D286
    name:      Desio
    latitude:  45.621633
    longitude: 9.208753
  City_desulo:
    Province:  ProvinceNU
    id:        D287
    name:      Desulo
    latitude:  40.011426
    longitude: 9.228148
  City_diamante:
    Province:  ProvinceCS
    id:        D289
    name:      Diamante
    latitude:  39.67717
    longitude: 15.825113
  City_scigliano:
    Province:  ProvinceCS
    id:        D290
    name:      Scigliano
    latitude:  39.128444
    longitude: 16.306722
  City_diano_d_alba:
    Province:  ProvinceCN
    id:        D291
    name:      'Diano D''Alba'
    latitude:  44.651105
    longitude: 8.02844
  City_teggiano:
    Province:  ProvinceSA
    id:        D292
    name:      Teggiano
    latitude:  40.380333
    longitude: 15.541426
  City_diano_arentino:
    Province:  ProvinceIM
    id:        D293
    name:      'Diano Arentino'
    latitude:  43.950779
    longitude: 8.041911
  City_diano_castello:
    Province:  ProvinceIM
    id:        D296
    name:      'Diano Castello'
    latitude:  43.925142
    longitude: 8.065955
  City_diano_marina:
    Province:  ProvinceIM
    id:        D297
    name:      'Diano Marina'
    latitude:  43.909894
    longitude: 8.08183
  City_diano_san_pietro:
    Province:  ProvinceIM
    id:        D298
    name:      'Diano San Pietro'
    latitude:  43.932456
    longitude: 8.073062
  City_dicomano:
    Province:  ProvinceFI
    id:        D299
    name:      Dicomano
    latitude:  43.892056
    longitude: 11.522204
  City_dignano:
    Province:  ProvinceUD
    id:        D300
    name:      Dignano
    latitude:  46.085018
    longitude: 12.941889
  City_dimaro:
    Province:  ProvinceTN
    id:        D302
    name:      Dimaro
    latitude:  46.327204
    longitude: 10.871889
  City_dinami:
    Province:  ProvinceVV
    id:        D303
    name:      Dinami
    latitude:  38.527764
    longitude: 16.147197
  City_dipignano:
    Province:  ProvinceCS
    id:        D304
    name:      Dipignano
    latitude:  39.238611
    longitude: 16.253907
  City_diso:
    Province:  ProvinceLE
    id:        D305
    name:      Diso
    latitude:  40.010648
    longitude: 18.393463
  City_divignano:
    Province:  ProvinceNO
    id:        D309
    name:      Divignano
    latitude:  45.663463
    longitude: 8.602833
  City_dizzasco:
    Province:  ProvinceCO
    id:        D310
    name:      Dizzasco
    latitude:  45.94487
    longitude: 9.100963
  City_dobbiaco:
    Province:  ProvinceBZ
    id:        D311
    name:      Dobbiaco
    latitude:  46.736618
    longitude: 12.225842
  City_doberdo_del_lago:
    Province:  ProvinceGO
    id:        D312
    name:      'Doberdò del Lago'
    latitude:  45.844074
    longitude: 13.539389
  City_dogliani:
    Province:  ProvinceCN
    id:        D314
    name:      Dogliani
    latitude:  44.530628
    longitude: 7.945908
  City_dogliola:
    Province:  ProvinceCH
    id:        D315
    name:      Dogliola
    latitude:  41.942133
    longitude: 14.635995
  City_dogna:
    Province:  ProvinceUD
    id:        D316
    name:      Dogna
    latitude:  46.448926
    longitude: 13.316111
  City_dolce:
    Province:  ProvinceVR
    id:        D317
    name:      Dolcè
    latitude:  45.601741
    longitude: 10.853611
  City_dolceacqua:
    Province:  ProvinceIM
    id:        D318
    name:      Dolceacqua
    latitude:  43.852833
    longitude: 7.623759
  City_dolcedo:
    Province:  ProvinceIM
    id:        D319
    name:      Dolcedo
    latitude:  43.906278
    longitude: 7.951259
  City_dolegna_del_collio:
    Province:  ProvinceGO
    id:        D321
    name:      'Dolegna del Collio'
    latitude:  46.03143
    longitude: 13.479382
  City_dolianova:
    Province:  ProvinceCA
    id:        D323
    name:      Dolianova
    latitude:  39.379389
    longitude: 9.179704
  City_san_dorligo_della_valle:
    Province:  ProvinceTS
    id:        D324
    name:      'San Dorligo della Valle'
    latitude:  45.601226
    longitude: 13.859327
  City_dolo:
    Province:  ProvinceVE
    id:        D325
    name:      Dolo
    latitude:  45.426182
    longitude: 12.074455
  City_dolzago:
    Province:  ProvinceLC
    id:        D327
    name:      Dolzago
    latitude:  45.767981
    longitude: 9.340481
  City_domanico:
    Province:  ProvinceCS
    id:        D328
    name:      Domanico
    latitude:  39.220207
    longitude: 16.206647
  City_domaso:
    Province:  ProvinceCO
    id:        D329
    name:      Domaso
    latitude:  46.153385
    longitude: 9.332279
  City_domegge_di_cadore:
    Province:  ProvinceBL
    id:        D330
    name:      'Domegge di Cadore'
    latitude:  46.460333
    longitude: 12.414852
  City_domicella:
    Province:  ProvinceAV
    id:        D331
    name:      Domicella
    latitude:  40.881111
    longitude: 14.588778
  City_domodossola:
    Province:  ProvinceVB
    id:        D332
    name:      Domodossola
    latitude:  46.114836
    longitude: 8.291528
  City_domus_de_maria:
    Province:  ProvinceCA
    id:        D333
    name:      'Domus De Maria'
    latitude:  38.945167
    longitude: 8.864537
  City_domusnovas:
    Province:  ProvinceCI
    id:        D334
    name:      Domusnovas
    latitude:  39.321302
    longitude: 8.651388
  City_don:
    Province:  ProvinceTN
    id:        D336
    name:      Don
    latitude:  46.389906
    longitude: 11.13696
  City_donnas:
    Province:  ProvinceAO
    id:        D338
    name:      Donnas
    latitude:  45.604008
    longitude: 7.770258
  City_donato:
    Province:  ProvinceBI
    id:        D339
    name:      Donato
    latitude:  45.527942
    longitude: 7.909415
  City_dongo:
    Province:  ProvinceCO
    id:        D341
    name:      Dongo
    latitude:  46.122986
    longitude: 9.279204
  City_donori:
    Province:  ProvinceCA
    id:        D344
    name:      Donorì
    latitude:  39.432204
    longitude: 9.128463
  City_dorgali:
    Province:  ProvinceNU
    id:        D345
    name:      Dorgali
    latitude:  40.293778
    longitude: 9.589241
  City_dorio:
    Province:  ProvinceLC
    id:        D346
    name:      Dorio
    latitude:  46.102739
    longitude: 9.319301
  City_dormelletto:
    Province:  ProvinceNO
    id:        D347
    name:      Dormelletto
    latitude:  45.727223
    longitude: 8.58031
  City_dorno:
    Province:  ProvincePV
    id:        D348
    name:      Dorno
    latitude:  45.157078
    longitude: 8.95401
  City_dorsino:
    Province:  ProvinceTN
    id:        D349
    name:      Dorsino
    latitude:  46.073724
    longitude: 10.897562
  City_dorzano:
    Province:  ProvinceBI
    id:        D350
    name:      Dorzano
    latitude:  45.426502
    longitude: 8.098573
  City_dosolo:
    Province:  ProvinceMN
    id:        D351
    name:      Dosolo
    latitude:  44.953834
    longitude: 10.640907
  City_dossena:
    Province:  ProvinceBG
    id:        D352
    name:      Dossena
    latitude:  45.881259
    longitude: 9.697815
  City_dosso_del_liro:
    Province:  ProvinceCO
    id:        D355
    name:      'Dosso del Liro'
    latitude:  46.164292
    longitude: 9.275024
  City_doues:
    Province:  ProvinceAO
    id:        D356
    name:      Doues
    latitude:  45.819704
    longitude: 7.307595
  City_dovadola:
    Province:  ProvinceFC
    id:        D357
    name:      Dovadola
    latitude:  44.123778
    longitude: 11.88987
  City_dovera:
    Province:  ProvinceCR
    id:        D358
    name:      Dovera
    latitude:  45.366259
    longitude: 9.542518
  City_dozza:
    Province:  ProvinceBO
    id:        D360
    name:      Dozza
    latitude:  44.359562
    longitude: 11.628897
  City_dragoni:
    Province:  ProvinceCE
    id:        D361
    name:      Dragoni
    latitude:  41.275938
    longitude: 14.303608
  City_drapia:
    Province:  ProvinceVV
    id:        D364
    name:      Drapia
    latitude:  38.664394
    longitude: 15.909691
  City_drena:
    Province:  ProvinceTN
    id:        D365
    name:      Drena
    latitude:  45.970044
    longitude: 10.943848
  City_drenchia:
    Province:  ProvinceUD
    id:        D366
    name:      Drenchia
    latitude:  46.184362
    longitude: 13.636174
  City_dresano:
    Province:  ProvinceMI
    id:        D367
    name:      Dresano
    latitude:  45.374997
    longitude: 9.357317
  City_drezzo:
    Province:  ProvinceCO
    id:        D369
    name:      Drezzo
    latitude:  45.816259
    longitude: 8.995944
  City_drizzona:
    Province:  ProvinceCR
    id:        D370
    name:      Drizzona
    latitude:  45.141777
    longitude: 10.349781
  City_dro:
    Province:  ProvinceTN
    id:        D371
    name:      Dro
    latitude:  45.962369
    longitude: 10.912375
  City_dronero:
    Province:  ProvinceCN
    id:        D372
    name:      Dronero
    latitude:  44.466722
    longitude: 7.352518
  City_druento:
    Province:  ProvinceTO
    id:        D373
    name:      Druento
    latitude:  45.134345
    longitude: 7.576462
  City_druogno:
    Province:  ProvinceVB
    id:        D374
    name:      Druogno
    latitude:  46.135963
    longitude: 8.437204
  City_dualchi:
    Province:  ProvinceNU
    id:        D376
    name:      Dualchi
    latitude:  40.230018
    longitude: 8.897518
  City_dubino:
    Province:  ProvinceSO
    id:        D377
    name:      Dubino
    latitude:  46.172833
    longitude: 9.431259
  City_dueville:
    Province:  ProvinceVI
    id:        D379
    name:      Dueville
    latitude:  45.636483
    longitude: 11.549358
  City_dugenta:
    Province:  ProvinceBN
    id:        D380
    name:      Dugenta
    latitude:  41.133296
    longitude: 14.453463
  City_duino_aurisina:
    Province:  ProvinceTS
    id:        D383
    name:      Duino-Aurisina
    latitude:  45.750481
    longitude: 13.675018
  City_dumenza:
    Province:  ProvinceVA
    id:        D384
    name:      Dumenza
    latitude:  46.019852
    longitude: 8.788778
  City_duno:
    Province:  ProvinceVA
    id:        D385
    name:      Duno
    latitude:  45.914302
    longitude: 8.737852
  City_durazzano:
    Province:  ProvinceBN
    id:        D386
    name:      Durazzano
    latitude:  41.064074
    longitude: 14.451574
  City_dusino_san_michele:
    Province:  ProvinceAT
    id:        D388
    name:      'Dusino San Michele'
    latitude:  44.922837
    longitude: 7.973754
